trip_id,arrival_time,departure_time,stop_id,stop_name,stop_lat,stop_lon,route_id,route_short_name,route_long_name,date
20241206-48-48181,09:19:00,09:19:00,02627,Brock Rd. S. @ Gilmour Rd.,43.466629,-80.1415634,08241224-48,48,Guelph / Hwy 407 Terminal,20241206
20241205-27-27371,13:06:00,13:06:00,01246,Mississauga Rd. @ Argentia Rd.,43.6003456,-79.7399902,08241224-27,27,Milton / North York,20241205
20241213-27-27280,09:25:00,09:25:00,00194,Milton GO Bus,43.523803,-79.867178,12240125-27,27,Milton / North York,20241213
20241231-96-96830,22:32:00,22:32:00,02572,Victoria St. @ Thickson Rd. (Thickson Ridge Power Centre),43.86726,-78.9002914,12240125-96,96,Oshawa / Finch Express,20241231
20241208-21-21860,23:33:00,23:33:00,02736,Derry Rd. @ Sauve St.,43.523968,-79.842312,12240125-21,21,Milton,20241208
20241229-LE-9136,22:20:00,22:20:00,UN,Union Station,43.645195,-79.3806,12240125-LE,LE,Lakeshore East,20241229
20241221-33-33551,17:34:00,17:34:00,00848,Hwy. 7 @ Bethel Rd.,43.6550446,-79.940506,12240125-33,33,Guelph / North York,20241221
20241230-33-33371,13:24:00,13:24:00,00930,Queen St. @ Tanners Dr.,43.6406593,-80.0248184,12240125-33,33,Guelph / North York,20241230
20241204-41-41860,22:46:00,22:46:00,00138,Bronte Rd. @ Hwy. 407 Park & Ride,43.4457626,-79.7920151,08241224-41,41,Hamilton / Pickering,20241204
20241220-56-56371,12:26:00,12:26:00,02785,Trafalgar Rd. @ Glenashton Dr.,43.480786,-79.709716,12240125-56,56,Oshawa / Oakville,20241220
20241204-21-21271,11:54:00,11:54:00,00806,Derry Rd. @ Fourth Line,43.5261955,-79.8401794,08241224-21,21,Milton,20241204
20241203-19-19151,08:12:00,08:12:00,02658,Dixie Transitway Station,43.6300478663032,-79.6146878930147,08241224-19,19,Mississauga / North York,20241203
20241209-41-41214,09:30:00,09:30:00,00132,Square One,43.5945549,-79.6475983,12240125-41,41,Hamilton / Pickering,20241209
20241215-71-71481,16:00:00,16:00:00,02112,Main St. N. @ 16th Ave.,43.8919067,-79.2639542,12240125-71,71,Stouffville,20241215
20241231-56-56471,14:56:00,14:56:00,02784,Trafalgar Rd. @ Briarhall Gate,43.477566,-79.705312,12240125-56,56,Oshawa / Oakville,20241231
20241205-21-21414,13:54:00,13:54:00,00197,Mississauga Rd. @ Mississauga Rd.,43.5983543,-79.7387848,08241224-21,21,Milton,20241205
20241209-17-17481,17:10:00,17:10:00,02818,Victoria St. N. @ Frederick St.,43.4663507673236,-80.4579750554575,12240125-17,17,Waterloo / Hamilton,20241209
20241212-32-32301,13:30:00,13:30:00,00074,Yonge St. @ Steeles Ave. W.,43.7986336,-79.4200897,12240125-32,32,Brampton Trinity Common / North York,20241212
20241217-BR-6923,17:00:00,17:00:00,EA,East Gwillimbury GO,44.077996,-79.455776,12240125-BR,BR,Barrie,20241217
20241219-LW-1775,17:11:00,17:11:00,WR,West Harbour GO,43.266775,-79.866222,12240125-LW,LW,Lakeshore West,20241219
20241208-92-92731,20:37:00,20:37:00,00623,Kingston Rd. @ Rougemount Dr.,43.80911,-79.12996,12240125-92,92,Oshawa / Yorkdale,20241208
20241212-71-71901,26:06:00,26:06:00,00965,Tenth Line @ Norm Faulkner Dr.,43.9801979,-79.2322922,12240125-71,71,Stouffville,20241212
20241211-40-40860,23:18:00,23:18:00,01001,King St. W. @ Caroline St. N.,43.258461,-79.8752441,12240125-40,40,Hamilton / Richmond Hill,20241211
20250103-41-41471,18:01:00,18:01:00,00139,Dundas St. @ Hwy. 407 Park & Ride,43.3892708,-79.8287811,12240125-41,41,Hamilton / Pickering,20250103
20241222-94-94331,12:22:00,12:22:00,01647,Yonge St. @ Florence Ave.,43.7582703,-79.4102325,12240125-94,94,Pickering / Square One,20241222
20241127-21-21781,21:25:00,21:25:00,02751,Cooksville GO Bus,43.582296,-79.624506,08241224-21,21,Milton,20241127
20241203-27-27510,15:00:00,15:00:00,01197,Derry Rd. W. @ Forest Park Dr.,43.5812836,-79.7789993,08241224-27,27,Milton / North York,20241203
20241204-48-48680,17:41:00,17:41:00,01439,Mississauga Rd. @ Argentia Rd.,43.6013832,-79.7402344,08241224-48,48,Guelph / Hwy 407 Terminal,20241204
20241217-32-32301,13:19:00,13:19:00,01650,Yonge St. @ Northtown Way,43.7753067,-79.4142609,12240125-32,32,Brampton Trinity Common / North York,20241217
20241207-33-33751,21:37:00,21:37:00,02722,Main St. @ Mill St. E.,43.6301210479395,-80.0419071434871,12240125-33,33,Guelph / North York,20241207
20241218-LE-9330,20:37:00,20:37:00,AJ,Ajax GO,43.847766,-79.041372,12240125-LE,LE,Lakeshore East,20241218
20241219-33-33811,21:38:00,21:38:00,00990,Hurontario St. @ County Court Blvd.,43.6589584,-79.7234879,12240125-33,33,Guelph / North York,20241219
20241209-27-27101,07:28:00,07:28:00,02597,6715 Millcreek Dr. @ Aquitaine Ave. (Millcreek Business Centre),43.5951004,-79.7512894,12240125-27,27,Milton / North York,20241209
20241126-33-33331,12:45:00,12:45:00,01703,Elizabeth St. @ Stevenson St. S.,43.5534325,-80.2346191,08241224-33,33,Guelph / North York,20241126
20241222-29-29211,08:58:00,08:58:00,02151,Regional Rd. 25 @ Hwy. 401 Park & Ride,43.5274849,-79.9038162,12240125-29,29,Guelph / Mississauga,20241222
20241209-27-27651,19:28:00,19:28:00,01204,Derry Rd. W. @ Terragar Blvd.,43.5817947,-79.7787247,12240125-27,27,Milton / North York,20241209
20241210-27-27160,07:21:00,07:21:00,01326,Millcreek Dr. @ Millrace Crt.,43.5927086,-79.7469559,12240125-27,27,Milton / North York,20241210
20241217-27-27331,11:45:00,11:45:00,00020,Hwy. 401 @ Keele St.,43.7232399,-79.4819412,12240125-27,27,Milton / North York,20241217
20241203-32-32280,11:09:00,11:09:00,01654,Yonge St. @ Ellerslie Ave.,43.7724152,-79.4139328,08241224-32,32,Brampton Trinity Common / North York,20241203
20241211-65-65670,17:33:00,17:33:00,01801,Wellington St. E. @ Stronach Blvd.,44.0072441,-79.4335251,12240125-65,65,Newmarket / Toronto,20241211
20241220-29-29141,07:57:00,07:57:00,01719,Brock Rd. S. @ Old Brock Rd.,43.4719391,-80.1498718,12240125-29,29,Guelph / Mississauga,20241220
20241223-32-32440,15:08:00,15:08:00,01651,Yonge St. @ Kempford Blvd.,43.777153,-79.4150925,12240125-32,32,Brampton Trinity Common / North York,20241223
20241207-94-94921,25:45:00,25:45:00,PA,Pearson Airport Terminal 1,43.6821671,-79.6132584,12240125-94,94,Pickering / Square One,20241207
20241231-BR-6808,07:59:00,07:59:00,MP,Maple GO,43.859481,-79.506984,12240125-BR,BR,Barrie,20241231
20241216-BR-6608,08:03:00,08:03:00,UN,Union Station,43.645195,-79.3806,12240125-BR,BR,Barrie,20241216
20241226-ST-7711,08:23:00,08:23:00,ST,Stouffville GO,43.970924,-79.249989,12240125-ST,ST,Stouffville,20241226
20241219-40-40290,11:14:00,11:14:00,02208,Renforth Dr. @ Convair Dr.,43.6720657,-79.5930939,12240125-40,40,Hamilton / Richmond Hill,20241219
20241213-GT-3021,14:21:00,14:21:00,WE,Weston GO,43.70022,-79.514671,12240125-GT,KI,Kitchener,20241213
20241222-47-47650,16:51:00,16:51:00,02163,Trafalgar Rd. @ Hwy. 407 Park & Ride,43.506545,-79.745813,12240125-47,47,Hamilton / Hwy 407 Terminal,20241222
20250103-92-92121,07:56:00,07:56:00,00342,Dundas St. @ White Oaks Crt.,43.8749466,-78.9636459,12240125-92,92,Oshawa / Yorkdale,20250103
20241213-41-41601,20:28:00,20:28:00,01014,Main St. W. @ Summers Ln. (Hamilton City Hall),43.2560577,-79.8728027,12240125-41,41,Hamilton / Pickering,20241213
20241222-65-65911,26:03:00,26:03:00,02172,Keele St. @ Kirby Rd.,43.8916321,-79.5207977,12240125-65,65,Newmarket / Toronto,20241222
20241205-30-30240,10:15:00,10:15:00,01440,Mississauga Rd. @ Royal Bank Dr.,43.6087875,-79.7501144,08241224-30,30,Kitchener / Bramalea,20241205
20241231-12-12442,13:44:00,13:44:00,00820,Fairview St. @ Maple Ave.,43.3287392,-79.8214798,12240125-12,12,Niagara Falls / Toronto,20241231
20241206-18-18690,16:34:00,16:34:00,01005,King St. W. @ Strathcona Ave. N.,43.2614555,-79.8850708,08241224-18,18,Lakeshore West,20241206
20241202-33-33481,14:48:00,14:48:00,00990,Hurontario St. @ County Court Blvd.,43.6589584,-79.7234879,08241224-33,33,Guelph / North York,20241202
20241206-70-70411,13:16:00,13:16:00,02575,Markham Rd. @ Castlemore Ave.,43.9040985,-79.2667618,08241224-70,70,Uxbridge / Mount Joy,20241206
20241216-LW-1005,07:18:00,07:18:00,AL,Aldershot GO,43.313385,-79.855659,12240125-LW,LW,Lakeshore West,20241216
20241128-21-21425,14:33:00,14:33:00,00190,Aquitaine Ave. @ Formentera Ave. (Meadowvale Town Centre),43.5842514,-79.7617722,08241224-21,21,Milton,20241128
20241129-19-19181,07:54:00,07:54:00,00079,Yonge St. @ North York Blvd. (Mel Lastman Square),43.7681007,-79.4128571,08241224-19,19,Mississauga / North York,20241129
20241220-54-54080,06:38:00,06:38:00,02021,Yonge St. @ Garden Ave.,43.8384552,-79.4297791,12240125-54,54,Markham / Hwy 407 Terminal,20241220
20241228-LE-9236,22:53:00,22:53:00,SC,Scarborough GO,43.716945,-79.254722,12240125-LE,LE,Lakeshore East,20241228
20241127-29-29411,13:47:00,13:47:00,01719,Brock Rd. S. @ Old Brock Rd.,43.4719391,-80.1498718,08241224-29,29,Guelph / Mississauga,20241127
20241210-16-16040,04:21:00,04:21:00,01005,King St. W. @ Strathcona Ave. N.,43.2614555,-79.8850708,12240125-16,16,Hamilton / Toronto Express,20241210
20241210-21-21311,12:23:00,12:23:00,01139,Aquitaine Ave. @ Millcreek Dr.,43.5927467,-79.756218,12240125-21,21,Milton,20241210
20241211-92-92620,17:43:00,17:43:00,02675,Dundas St. @ Halls Rd.,43.8713052332062,-78.981120567689,12240125-92,92,Oshawa / Yorkdale,20241211
20241221-40-40891,25:43:00,25:43:00,01014,Main St. W. @ Summers Ln. (Hamilton City Hall),43.2560577,-79.8728027,12240125-40,40,Hamilton / Richmond Hill,20241221
20241220-29-29400,11:30:00,11:30:00,00201,University of Guelph,43.5293732,-80.2252502,12240125-29,29,Guelph / Mississauga,20241220
20241227-LE-9032,20:38:00,20:38:00,SC,Scarborough GO,43.716945,-79.254722,12240125-LE,LE,Lakeshore East,20241227
20241206-LW-1735,22:23:00,22:23:00,CL,Clarkson GO,43.513127,-79.633206,08241224-LW,LW,Lakeshore West,20241206
20241205-65-65060,04:42:00,04:42:00,00303,Wellington St. E. @ Bayview Ave.,44.0047264,-79.4445038,08241224-65,65,Newmarket / Toronto,20241205
20241203-27-27240,09:47:00,09:47:00,02772,Yonge St. @ Sheppard Ave.,43.762187996328,-79.4109345055581,08241224-27,27,Milton / North York,20241203
20241216-37-37761,21:17:00,21:17:00,01172,Broadway @ Centre St.,43.9175949,-80.1044159,12240125-37,37,Orangeville / Brampton,20241216
20241206-92-92670,19:55:00,19:55:00,00019,Yorkdale Bus Terminal,43.7249374,-79.4488754,08241224-92,92,Oshawa / Yorkdale,20241206
20241213-21-21311,12:24:00,12:24:00,01135,Aquitaine Ave. @ Glen Erin Dr.,43.5866318,-79.7586594,12240125-21,21,Milton,20241213
20250102-41-41202,10:47:00,10:47:00,00634,Kingston Rd. @ Whites Rd.,43.8194008,-79.1146774,12240125-41,41,Hamilton / Pickering,20250102
20241224-88-88830,20:45:00,20:45:00,00946,Martin Rd. @ Aspen Springs Dr.,43.9068298,-78.7001495,12240125-88,88,Peterborough / Oshawa,20241224
20241217-54-54600,17:22:00,17:22:00,00126,Bullock Dr. @ Austin Dr.,43.8676033,-79.2930374,12240125-54,54,Markham / Hwy 407 Terminal,20241217
20241203-48-48160,06:30:00,06:30:00,01134,Aquitaine Ave. @ Glen Erin Dr.,43.5867882,-79.7581024,08241224-48,48,Guelph / Hwy 407 Terminal,20241203
20241215-47-47791,21:58:00,21:58:00,02215,Erin Mills Transitway Station,43.552124,-79.7004547,12240125-47,47,Hamilton / Hwy 407 Terminal,20241215
20250103-48-48100,05:08:00,05:08:00,02626,Brock Rd. S. @ Gilmour Rd.,43.4668732,-80.1422806,12240125-48,48,Guelph / Hwy 407 Terminal,20250103
20241211-21-21051,07:22:00,07:22:00,01024,Thompson Rd. S. @ Derry Rd. W.,43.517498,-79.8523712,12240125-21,21,Milton,20241211
20241226-19-19531,15:55:00,15:55:00,00300,Yonge St. @ North York Blvd.,43.7668343,-79.412468,12240125-19,19,Mississauga / North York,20241226
20241226-15-15440,11:05:00,11:05:00,00310,McMaster University,43.2617264,-79.9225693,12240125-15,15,Brantford / Aldershot,20241226
20241225-88-88901,22:50:00,22:50:00,00514,Durham Hwy. 2 @ Bragg Rd.,43.9126205,-78.6365585,12240125-88,88,Peterborough / Oshawa,20241225
20241228-LW-1014,10:04:00,10:04:00,AL,Aldershot GO,43.313385,-79.855659,12240125-LW,LW,Lakeshore West,20241228
20241224-31-31630,16:22:00,16:22:00,00866,Mill St. E. @ Elgin St. S.,43.6315536,-80.0392075,12240125-31,31,Guelph / Toronto,20241224
20241216-41-41402,14:05:00,14:05:00,00132,Square One,43.5945549,-79.6475983,12240125-41,41,Hamilton / Pickering,20241216
20241230-GT-3521,15:23:00,15:23:00,MO,Mount Pleasant GO,43.6749763,-79.8221817,12240125-GT,KI,Kitchener,20241230
20241202-33-33400,12:07:00,12:07:00,02802,Moutainview Rd. N. @ Maple Ave.,43.654996,-79.909971,08241224-33,33,Guelph / North York,20241202
20250103-68-68761,22:24:00,22:24:00,02118,Yonge St. @ Mortonvale Dr.,44.1003456,-79.4911728,12240125-68,68,Barrie / Newmarket,20250103
20241207-LE-9326,18:24:00,18:24:00,RO,Rouge Hill GO,43.780375,-79.130646,12240125-LE,LE,Lakeshore East,20241207
20250103-96-96611,18:30:00,18:30:00,00159,Durham College Oshawa GO,43.870909,-78.88585,12240125-96,96,Oshawa / Finch Express,20250103
20241210-32-32132,07:37:00,07:37:00,00299,Yonge St. @ Elmhurst Ave.,43.7634468,-79.4115524,12240125-32,32,Brampton Trinity Common / North York,20241210
20241129-94-94150,07:46:00,07:46:00,00723,McCowan Rd. @ Triton Rd.,43.7755547,-79.2528763,08241224-94,94,Pickering / Square One,20241129
20241216-31-31923,26:24:00,26:24:00,00803,Alma St. @ Fall St.,43.6138763,-80.1490631,12240125-31,31,Guelph / Toronto,20241216
20241129-33-33681,18:35:00,18:35:00,00292,Bovaird Dr. W. @ Hurontario St.,43.705513,-79.7875595,08241224-33,33,Guelph / North York,20241129
20241211-36-36351,12:02:00,12:02:00,00019,Yorkdale Bus Terminal,43.7249374,-79.4488754,12240125-36,36,Brampton / North York Express,20241211
20241129-47-47486,16:10:00,16:10:00,08041,Bramalea GO Bus,43.702269,-79.69011,08241224-47,47,Hamilton / Hwy 407 Terminal,20241129
20250101-30-30371,13:41:00,13:41:00,02531,Weber St. E. @ Queen St. N.,43.451828,-80.4870758,12240125-30,30,Kitchener / Bramalea,20250101
20250102-16-16810,21:04:00,21:04:00,01006,King St. W. @ Summers Ln. (Hamilton Place),43.2576485,-79.8717346,12240125-16,16,Hamilton / Toronto Express,20250102
20241227-19-19641,17:52:00,17:52:00,00008,Yonge St. @ Sheppard Ave.,43.7615967,-79.4111938,12240125-19,19,Mississauga / North York,20241227
20241229-27-27161,07:35:00,07:35:00,00300,Yonge St. @ North York Blvd.,43.7668343,-79.412468,12240125-27,27,Milton / North York,20241229
20241205-17-17470,15:46:00,15:46:00,01712,Gordon St. @ Edinburgh Rd. S.,43.5163383,-80.2033386,08241224-17,17,Waterloo / Hamilton,20241205
20241213-54-54441,14:34:00,14:34:00,02144,YMCA Blvd. @ Kennedy Rd.,43.8535728,-79.3085709,12240125-54,54,Markham / Hwy 407 Terminal,20241213
20241213-56-56691,18:52:00,18:52:00,02647,Trafalgar Rd. @ Dundas St. E.,43.4877993708847,-79.7192931589981,12240125-56,56,Oshawa / Oakville,20241213
20241228-33-33080,07:18:00,07:18:00,00210,Georgetown Market,43.6499481,-79.8984299,12240125-33,33,Guelph / North York,20241228
20250103-37-37270,07:20:00,07:20:00,01255,Hansen Blvd. @ Michael Dr.,43.9295616,-80.1105499,12240125-37,37,Orangeville / Brampton,20250103
20241231-56-56390,13:20:00,13:20:00,02684,Simcoe St. @ Britannia Ave.,43.9558385161942,-78.8994952290358,12240125-56,56,Oshawa / Oakville,20241231
20241220-29-29660,18:05:00,18:05:00,02778,Kipling Bus Terminal,43.635688,-79.538441,12240125-29,29,Guelph / Mississauga,20241220
20241212-41-41680,21:16:00,21:16:00,00971,Kingston Rd. @ Walnut Ln.,43.8308105,-79.0965042,12240125-41,41,Hamilton / Pickering,20241212
20241216-41-41160,09:13:00,09:13:00,00350,Richmond Hill Centre,43.8401451,-79.4252853,12240125-41,41,Hamilton / Pickering,20241216
20241229-92-92160,07:28:00,07:28:00,00332,Bond St. W. @ Stevenson Rd. N.,43.8938599,-78.8843384,12240125-92,92,Oshawa / Yorkdale,20241229
20241218-47-47850,22:24:00,22:24:00,02163,Trafalgar Rd. @ Hwy. 407 Park & Ride,43.506545,-79.745813,12240125-47,47,Hamilton / Hwy 407 Terminal,20241218
20241231-40-40831,22:45:00,22:45:00,02209,Renforth Dr. @ Convair Dr.,43.6723671,-79.5936432,12240125-40,40,Hamilton / Richmond Hill,20241231
20241223-96-96361,12:05:00,12:05:00,00013,Finch Bus Terminal,43.7821732,-79.4150925,12240125-96,96,Oshawa / Finch Express,20241223
20250102-27-27160,07:21:00,07:21:00,02598,Millcreek Dr. @ Aquitaine Ave.,43.5951157,-79.7525024,12240125-27,27,Milton / North York,20250102
20241229-25-25141,07:21:00,07:21:00,02635,Winston Churchill Transitway Station,43.5419006,-79.7131805,12240125-25,25,Waterloo / Mississauga,20241229
20241224-40-40581,16:30:00,16:30:00,00350,Richmond Hill Centre,43.8401451,-79.4252853,12240125-40,40,Hamilton / Richmond Hill,20241224
20241127-36-36471,15:07:00,15:07:00,00020,Hwy. 401 @ Keele St.,43.7232399,-79.4819412,08241224-36,36,Brampton / North York Express,20241127
20241219-37-37371,13:48:00,13:48:00,02567,Hurontario St. @ Old School Rd.,43.753563,-79.851234,12240125-37,37,Orangeville / Brampton,20241219
20241229-21-21951,27:29:00,27:29:00,02508,Derry Rd. W. @ Ninth Line,43.574543,-79.78685,12240125-21,21,Milton,20241229
20241231-92-92771,21:32:00,21:32:00,00971,Kingston Rd. @ Walnut Ln.,43.8308105,-79.0965042,12240125-92,92,Oshawa / Yorkdale,20241231
20241218-33-33331,12:34:00,12:34:00,02412,Main St. S. @ Ridge Rd.,43.61085,-80.13266,12240125-33,33,Guelph / North York,20241218
20241202-33-33675,17:53:00,17:53:00,00990,Hurontario St. @ County Court Blvd.,43.6589584,-79.7234879,08241224-33,33,Guelph / North York,20241202
20241228-LW-1709,09:20:00,09:20:00,CL,Clarkson GO,43.513127,-79.633206,12240125-LW,LW,Lakeshore West,20241228
20241128-22-22300,10:37:00,10:37:00,02765,Trafalgar Rd. @ Upper Middle Rd. E.,43.474533,-79.701471,08241224-22,22,Milton / Oakville,20241128
20241223-37-37200,06:33:00,06:33:00,01176,Broadway @ Townline,43.9213676,-80.0873718,12240125-37,37,Orangeville / Brampton,20241223
20241203-92-92731,20:42:00,20:42:00,00323,Kingston Rd. @ Harwood Ave.,43.8611984,-79.0252075,08241224-92,92,Oshawa / Yorkdale,20241203
20241218-12-12531,17:29:00,17:29:00,02404,Stanley Ave. @ Hwy. 420 Park & Ride,43.097075,-79.084885,12240125-12,12,Niagara Falls / Toronto,20241218
20241128-33-33820,21:09:00,21:09:00,00210,Georgetown Market,43.6499481,-79.8984299,08241224-33,33,Guelph / North York,20241128
20250103-66-66140,06:08:00,06:08:00,02010,Yonge St. @ Dawson Manor Blvd.,44.0614586,-79.4821243,12240125-66,66,East Gwillimbury / Hwy 407 Terminal,20250103
20241212-29-29791,20:55:00,20:55:00,02778,Kipling Bus Terminal,43.635688,-79.538441,12240125-29,29,Guelph / Mississauga,20241212
20241219-29-29540,14:28:00,14:28:00,01714,Gordon St. @ Arkell Rd.,43.5137901,-80.1998749,12240125-29,29,Guelph / Mississauga,20241219
20241127-68-68680,15:42:00,15:42:00,01969,Toll Rd. @ Bradford St.,44.1004066,-79.4977875,08241224-68,68,Barrie / Newmarket,20241127
20241128-92-92760,21:55:00,21:55:00,00019,Yorkdale Bus Terminal,43.7249374,-79.4488754,08241224-92,92,Oshawa / Yorkdale,20241128
20241207-12-12480,14:03:00,14:03:00,02621,Ontario St. @ QEW (Beamsville) Park & Ride,43.1881676,-79.4759598,12240125-12,12,Niagara Falls / Toronto,20241207
20241214-71-71361,12:05:00,12:05:00,02300,Union Station Bus Terminal,43.644042,-79.376939,12240125-71,71,Stouffville,20241214
20241126-47-47031,06:38:00,06:38:00,02163,Trafalgar Rd. @ Hwy. 407 Park & Ride,43.506545,-79.745813,08241224-47,47,Hamilton / Hwy 407 Terminal,20241126
20250102-88-88950,25:28:00,25:28:00,00510,Durham Hwy. 2 @ Bennett Rd.,43.9123993,-78.6490173,12240125-88,88,Peterborough / Oshawa,20250102
20241204-12-12400,12:10:00,12:10:00,02621,Ontario St. @ QEW (Beamsville) Park & Ride,43.1881676,-79.4759598,08241224-12,12,Niagara Falls / Toronto,20241204
20241223-88-88220,08:40:00,08:40:00,02502,Peterborough Bus Terminal,44.3045998,-78.3224182,12240125-88,88,Peterborough / Oshawa,20241223
20241204-LW-1014,10:44:00,10:44:00,PO,Port Credit GO,43.555999,-79.586881,08241224-LW,LW,Lakeshore West,20241204
20241230-56-56201,08:50:00,08:50:00,00132,Square One,43.5945549,-79.6475983,12240125-56,56,Oshawa / Oakville,20241230
20241212-LE-9211,09:13:00,09:13:00,GU,Guildwood GO,43.755272,-79.198252,12240125-LE,LE,Lakeshore East,20241212
20241213-40-40231,10:21:00,10:21:00,01011,Main St. W. @ Pearl St. S.,43.2583809,-79.8828964,12240125-40,40,Hamilton / Richmond Hill,20241213
20241215-30-30331,12:43:00,12:43:00,02186,Kitchener GO Bus,43.455573,-80.492543,12240125-30,30,Kitchener / Bramalea,20241215
20241216-MI-2722,08:08:00,08:08:00,LS,Lisgar GO,43.590791,-79.788539,12240125-MI,MI,Milton,20241216
20241215-27-27700,19:04:00,19:04:00,01439,Mississauga Rd. @ Argentia Rd.,43.6013832,-79.7402344,12240125-27,27,Milton / North York,20241215
20241126-33-33282,10:12:00,10:12:00,00991,Hurontario St. @ Ray Lawson Blvd.,43.658577,-79.7236023,08241224-33,33,Guelph / North York,20241126
20241216-27-27451,15:59:00,15:59:00,01024,Thompson Rd. S. @ Derry Rd. W.,43.517498,-79.8523712,12240125-27,27,Milton / North York,20241216
20241210-96-96361,12:06:00,12:06:00,01651,Yonge St. @ Kempford Blvd.,43.777153,-79.4150925,12240125-96,96,Oshawa / Finch Express,20241210
20241224-40-40271,10:10:00,10:10:00,PA,Pearson Airport Terminal 1,43.6821671,-79.6132584,12240125-40,40,Hamilton / Richmond Hill,20241224
20241218-22-22421,13:20:00,13:20:00,02784,Trafalgar Rd. @ Briarhall Gate,43.477566,-79.705312,12240125-22,22,Milton / Oakville,20241218
20241219-30-30020,05:20:00,05:20:00,00200,Syntex Crt. @ Financial Dr.,43.6098404,-79.7476349,12240125-30,30,Kitchener / Bramalea,20241219
20241204-33-33742,20:50:00,20:50:00,00019,Yorkdale Bus Terminal,43.7249374,-79.4488754,08241224-33,33,Guelph / North York,20241204
20241214-71-71500,15:55:00,15:55:00,00128,Unionville GO Bus,43.851935,-79.313774,12240125-71,71,Stouffville,20241214
20241203-40-40121,06:46:00,06:46:00,02021,Yonge St. @ Garden Ave.,43.8384552,-79.4297791,08241224-40,40,Hamilton / Richmond Hill,20241203
20241130-33-33291,11:02:00,11:02:00,00839,Guelph St. @ Noble St.,43.6471291,-79.8579407,08241224-33,33,Guelph / North York,20241130
20250103-96-96560,17:40:00,17:40:00,01660,Yonge St. @ Empress Ave.,43.7691803,-79.4126587,12240125-96,96,Oshawa / Finch Express,20250103
20241129-41-41330,10:59:00,10:59:00,02759,King St. W. @ Queen St. N.,43.25943,-79.878547,08241224-41,41,Hamilton / Pickering,20241129
20241202-48-48460,12:56:00,12:56:00,01718,Brock Rd. S. @ Maple Leaf Ln.,43.4715347,-80.1500168,08241224-48,48,Guelph / Hwy 407 Terminal,20241202
20241208-LE-9136,22:32:00,22:32:00,DA,Danforth GO,43.686462,-79.300358,12240125-LE,LE,Lakeshore East,20241208
20241205-19-19161,08:40:00,08:40:00,00133,Square One,43.5946693,-79.6474915,08241224-19,19,Mississauga / North York,20241205
20250101-47-47230,07:11:00,07:11:00,01005,King St. W. @ Strathcona Ave. N.,43.2614555,-79.8850708,12240125-47,47,Hamilton / Hwy 407 Terminal,20250101
20241128-ST-7907,07:31:00,07:31:00,AG,Agincourt GO,43.78611,-79.284385,08241224-ST,ST,Stouffville,20241128
20241209-37-37451,17:29:00,17:29:00,01174,Broadway @ John St.,43.9187775,-80.0992432,12240125-37,37,Orangeville / Brampton,20241209
20241213-33-33362,12:05:00,12:05:00,00221,Brampton Bus Terminal,43.6869087,-79.7628632,12240125-33,33,Guelph / North York,20241213
20241206-41-41781,24:08:00,24:08:00,01014,Main St. W. @ Summers Ln. (Hamilton City Hall),43.2560577,-79.8728027,08241224-41,41,Hamilton / Pickering,20241206
20241205-27-27320,10:41:00,10:41:00,01202,Derry Rd. W. @ Tenth Line W.,43.5840263,-79.7760086,08241224-27,27,Milton / North York,20241205
20241211-40-40500,15:05:00,15:05:00,02759,King St. W. @ Queen St. N.,43.25943,-79.878547,12240125-40,40,Hamilton / Richmond Hill,20241211
20241220-32-32300,12:35:00,12:35:00,08041,Bramalea GO Bus,43.702269,-79.69011,12240125-32,32,Brampton Trinity Common / North York,20241220
20241212-90-90990,27:17:00,27:17:00,02573,Victoria St. @ Thickson Rd. (Thickson Ridge Power Centre),43.8673973,-78.8993225,12240125-90,90,Lakeshore East,20241212
20241213-61-61721,20:33:00,20:33:00,00062,Richmond Hill GO Bus,43.875786,-79.426228,12240125-61,61,Richmond Hill,20241213
20241210-41-41431,13:53:00,13:53:00,00972,Kingston Rd. @ Walnut Ln.,43.8309517,-79.0968323,12240125-41,41,Hamilton / Pickering,20241210
20250103-61-61341,12:10:00,12:10:00,01803,Bayview Ave. @ Langstaff Rd. E.,43.8349037,-79.4053802,12240125-61,61,Richmond Hill,20250103
20241216-68-68321,13:48:00,13:48:00,00977,Yonge St. @ Shore Acres Dr.,44.2156067,-79.5902023,12240125-68,68,Barrie / Newmarket,20241216
20241220-21-21830,22:34:00,22:34:00,00341,Lisgar GO Bus,43.591504,-79.788224,12240125-21,21,Milton,20241220
20241222-21-21332,12:05:00,12:05:00,01245,Erin Mills Pkwy. @ Windwood Dr.,43.5805435,-79.7364044,12240125-21,21,Milton,20241222
20250102-31-31101,07:42:00,07:42:00,00834,Guelph St. @ Mill St.,43.6513214,-79.9234467,12240125-31,31,Guelph / Toronto,20250102
20241204-54-54111,07:05:00,07:05:00,00128,Unionville GO Bus,43.851935,-79.313774,08241224-54,54,Markham / Hwy 407 Terminal,20241204
20241220-33-33861,24:30:00,24:30:00,02719,York St. @ 800 York St.,43.5584831140902,-80.2149901373342,12240125-33,33,Guelph / North York,20241220
20241212-40-40650,18:52:00,18:52:00,02661,Renforth Transitway Station,43.662995090205,-79.5911181123626,12240125-40,40,Hamilton / Richmond Hill,20241212
20241223-48-48431,15:23:00,15:23:00,02717,Gordon St. @ Clairfields Dr. E.,43.5057636408486,-80.1943022849076,12240125-48,48,Guelph / Hwy 407 Terminal,20241223
20241215-65-65941,27:34:00,27:34:00,02634,Davis Dr. @ Superior St. (Newmarket GO),44.0596123,-79.4592438,12240125-65,65,Newmarket / Toronto,20241215
20241227-32-32220,08:46:00,08:46:00,02078,Yonge St. @ Royal Orchard Blvd.,43.8223343,-79.426033,12240125-32,32,Brampton Trinity Common / North York,20241227
20241205-40-40171,09:11:00,09:11:00,01012,Main St. W. @ Ray St. S.,43.257885,-79.8809128,08241224-40,40,Hamilton / Richmond Hill,20241205
20241209-33-33721,20:22:00,20:22:00,00847,Hwy. 7 @ Banting Rd.,43.6515427,-79.9443207,12240125-33,33,Guelph / North York,20241209
20241215-16-16461,15:43:00,15:43:00,00732,Main St. W. @ Longwood Rd. S.,43.2590866,-79.901741,12240125-16,16,Hamilton / Toronto Express,20241215
20241218-21-21242,09:28:00,09:28:00,01234,Eglinton Ave. W. @ Mississauga Rd.,43.5683022,-79.695961,12240125-21,21,Milton,20241218
20241213-94-94330,12:20:00,12:20:00,00020,Hwy. 401 @ Keele St.,43.7232399,-79.4819412,12240125-94,94,Pickering / Square One,20241213
20241219-19-19351,11:52:00,11:52:00,01644,Yonge St. @ Churchill Ave.,43.7741737,-79.4143219,12240125-19,19,Mississauga / North York,20241219
20241211-41-41050,08:28:00,08:28:00,02650,Military Trail. @ Pan Am Dr.,43.7878560204119,-79.1908919809448,12240125-41,41,Hamilton / Pickering,20241211
20241221-21-21750,21:16:00,21:16:00,01191,Creditview Rd. @ Eglinton Ave.,43.577282,-79.6845093,12240125-21,21,Milton,20241221
20241216-31-31630,17:24:00,17:24:00,02745,Main St. N. @ Williams Pkwy.,43.6983315029567,-79.7768451099263,12240125-31,31,Guelph / Toronto,20241216
20241126-61-61841,23:24:00,23:24:00,02056,Yonge St. @ May Ave.,43.8639069,-79.435379,08241224-61,61,Richmond Hill,20241126
20241218-92-92760,20:52:00,20:52:00,02675,Dundas St. @ Halls Rd.,43.8713052332062,-78.981120567689,12240125-92,92,Oshawa / Yorkdale,20241218
20241205-25-25592,17:48:00,17:48:00,02151,Regional Rd. 25 @ Hwy. 401 Park & Ride,43.5274849,-79.9038162,08241224-25,25,Waterloo / Mississauga,20241205
20241205-33-33561,16:55:00,16:55:00,00296,Mount Pleasant GO Bus,43.674976,-79.822181,08241224-33,33,Guelph / North York,20241205
20250103-30-30440,14:27:00,14:27:00,02204,Weber St. E. @ Montgomery Rd.,43.4387245,-80.4601898,12240125-30,30,Kitchener / Bramalea,20250103
20241215-47-47351,13:13:00,13:13:00,02185,Main St. W. @ Haddon Ave. S.,43.258091,-79.91185,12240125-47,47,Hamilton / Hwy 407 Terminal,20241215
20241231-21-21620,16:50:00,16:50:00,00129,Meadowvale GO Bus,43.597499,-79.754517,12240125-21,21,Milton,20241231
20241221-30-30551,16:55:00,16:55:00,02586,Financial Dr. @ Syntex Crt.,43.611037345833,-79.7488204602084,12240125-30,30,Kitchener / Bramalea,20241221
20250103-12-12440,14:12:00,14:12:00,00139,Dundas St. @ Hwy. 407 Park & Ride,43.3892708,-79.8287811,12240125-12,12,Niagara Falls / Toronto,20250103
20241217-LW-1256,07:21:00,07:21:00,CL,Clarkson GO,43.513127,-79.633206,12240125-LW,LW,Lakeshore West,20241217
20241201-71-71140,06:26:00,06:26:00,02544,Markham Rd. @ Edward Jeffreys Ave.,43.896362,-79.265251,08241224-71,71,Stouffville,20241201
20241223-41-41371,15:49:00,15:49:00,01008,Main St. W. @ Dundurn St. S.,43.2598228,-79.8895493,12240125-41,41,Hamilton / Pickering,20241223
20241208-25-25241,10:21:00,10:21:00,02150,Cambridge Smart Centre,43.4117165,-80.3236008,12240125-25,25,Waterloo / Mississauga,20241208
20241129-ST-7909,08:07:00,08:07:00,MR,Markham GO,43.882691,-79.262469,08241224-ST,ST,Stouffville,20241129
20241203-16-16461,16:01:00,16:01:00,01013,Main St. W. @ Poulette St.,43.2591286,-79.8864059,08241224-16,16,Hamilton / Toronto Express,20241203
20241204-19-19311,11:10:00,11:10:00,00019,Yorkdale Bus Terminal,43.7249374,-79.4488754,08241224-19,19,Mississauga / North York,20241204
20241130-71-71840,21:49:00,21:49:00,00699,Toronto St. @ Welwood Dr.,44.0890808,-79.1344223,08241224-71,71,Stouffville,20241130
20241204-56-56030,05:25:00,05:25:00,00153,Durham College Campus/Ontario Tech University,43.9433594,-78.8949661,08241224-56,56,Oshawa / Oakville,20241204
20250102-15-15301,13:49:00,13:49:00,00310,McMaster University,43.2617264,-79.9225693,12240125-15,15,Brantford / Aldershot,20250102
20241130-19-19790,21:22:00,21:22:00,02659,Dixie Transitway Station,43.6300128947218,-79.6146254772841,08241224-19,19,Mississauga / North York,20241130
20241219-21-21745,20:47:00,20:47:00,01135,Aquitaine Ave. @ Glen Erin Dr.,43.5866318,-79.7586594,12240125-21,21,Milton,20241219
20241215-36-36151,07:10:00,07:10:00,01657,Yonge St. @ William Carson Cr.,43.7471085,-79.4072647,12240125-36,36,Brampton / North York Express,20241215
20250103-21-21951,26:55:00,26:55:00,01356,Rathburn Rd. W. @ Creditview Rd.,43.569828,-79.6690521,12240125-21,21,Milton,20250103
20241213-56-56411,13:45:00,13:45:00,02214,Erin Mills Transitway Station,43.5520363,-79.7003021,12240125-56,56,Oshawa / Oakville,20241213
20241231-56-56650,19:45:00,19:45:00,02674,Hwy 407 Bus Terminal,43.7830713234851,-79.5244458372792,12240125-56,56,Oshawa / Oakville,20241231
20241206-41-41480,17:46:00,17:46:00,02651,Military Trail. @ Pan Am Dr.,43.7877954094493,-79.1904190458541,08241224-41,41,Hamilton / Pickering,20241206
20241224-15-15840,20:01:00,20:01:00,02612,Wayne Gretzky Pkwy. @ Chatham St.,43.144886,-80.2353592,12240125-15,15,Brantford / Aldershot,20241224
20241130-LE-9227,17:20:00,17:20:00,SC,Scarborough GO,43.716945,-79.254722,08241224-LE,LE,Lakeshore East,20241130
20241222-18-18061,07:27:00,07:27:00,00137,Oakville GO Bus,43.455966,-79.681676,12240125-18,18,Lakeshore West,20241222
20241220-48-48100,05:52:00,05:52:00,01440,Mississauga Rd. @ Royal Bank Dr.,43.6087875,-79.7501144,12240125-48,48,Guelph / Hwy 407 Terminal,20241220
20241217-41-41390,14:55:00,14:55:00,02838,Sheppard Ave. E. @ Herons Hill Way,43.7754648931527,-79.3354883868647,12240125-41,41,Hamilton / Pickering,20241217
20241208-96-96420,14:39:00,14:39:00,01653,Yonge St. @ Elmwood Ave.,43.7664719,-79.4120407,12240125-96,96,Oshawa / Finch Express,20241208
20241210-41-41601,17:25:00,17:25:00,00144,University of Toronto Scarborough,43.7843628,-79.1851273,12240125-41,41,Hamilton / Pickering,20241210
20241224-68-68130,04:42:00,04:42:00,02593,Yonge St. @ Line 13,44.1866646,-79.5825729,12240125-68,68,Barrie / Newmarket,20241224
20250103-56-56291,12:55:00,12:55:00,00153,Durham College Campus/Ontario Tech University,43.9433594,-78.8949661,12240125-56,56,Oshawa / Oakville,20250103
20241223-19-19370,12:47:00,12:47:00,00022,Keele St. @ Hwy. 401,43.7216759,-79.4808273,12240125-19,19,Mississauga / North York,20241223
20241130-18-18341,12:42:00,12:42:00,00137,Oakville GO Bus,43.455966,-79.681676,08241224-18,18,Lakeshore West,20241130
20241213-37-37671,19:35:00,19:35:00,01177,Broadway @ Wellington St.,43.9202347,-80.0920944,12240125-37,37,Orangeville / Brampton,20241213
20241222-47-47201,09:05:00,09:05:00,02163,Trafalgar Rd. @ Hwy. 407 Park & Ride,43.506545,-79.745813,12240125-47,47,Hamilton / Hwy 407 Terminal,20241222
20241226-31-31920,24:44:00,24:44:00,01373,Steeles Ave. E. @ Kennedy Rd. S.,43.6759148,-79.7218475,12240125-31,31,Guelph / Toronto,20241226
20250103-16-16831,23:22:00,23:22:00,01012,Main St. W. @ Ray St. S.,43.257885,-79.8809128,12240125-16,16,Hamilton / Toronto Express,20250103
20241223-48-48061,06:35:00,06:35:00,00129,Meadowvale GO Bus,43.597499,-79.754517,12240125-48,48,Guelph / Hwy 407 Terminal,20241223
20241204-41-41230,11:03:00,11:03:00,02756,Consumers Rd. @ William Sylvester Dr.,43.770398,-79.33023,08241224-41,41,Hamilton / Pickering,20241204
20241219-ST-7824,17:09:00,17:09:00,AG,Agincourt GO,43.78611,-79.284385,12240125-ST,ST,Stouffville,20241219
20241216-92-92250,10:25:00,10:25:00,02816,Scarborough Centre Bus Terminal,43.77486,-79.26088,12240125-92,92,Oshawa / Yorkdale,20241216
20241128-19-19541,16:01:00,16:01:00,01651,Yonge St. @ Kempford Blvd.,43.777153,-79.4150925,08241224-19,19,Mississauga / North York,20241128
20241216-33-33721,19:20:00,19:20:00,01306,Main St. S. @ Clarence St.,43.6800728,-79.752037,12240125-33,33,Guelph / North York,20241216
20241128-66-66751,20:21:00,20:21:00,01994,Yonge St. @ Bristol Rd.,44.0678329,-79.4833374,08241224-66,66,East Gwillimbury / Hwy 407 Terminal,20241128
20241214-19-19431,13:58:00,13:58:00,01647,Yonge St. @ Florence Ave.,43.7582703,-79.4102325,12240125-19,19,Mississauga / North York,20241214
20241205-54-54540,16:05:00,16:05:00,00121,Mount Joy GO Bus,43.900455,-79.263649,08241224-54,54,Markham / Hwy 407 Terminal,20241205
20241212-33-33681,19:40:00,19:40:00,00203,Alma St. @ Inkerman St.,43.6168633,-80.1464539,12240125-33,33,Guelph / North York,20241212
20241209-33-33160,07:32:00,07:32:00,01313,Main St. S. @ Wellington St. E.,43.6844635,-79.7582321,12240125-33,33,Guelph / North York,20241209
20241228-BR-6928,17:48:00,17:48:00,NE,Newmarket GO,44.060426,-79.459289,12240125-BR,BR,Barrie,20241228
20241218-37-37611,17:43:00,17:43:00,01258,Hurontario St. @ Bovaird Dr. W.,43.70655,-79.78753,12240125-37,37,Orangeville / Brampton,20241218
20250103-40-40531,16:30:00,16:30:00,00133,Square One,43.5946693,-79.6474915,12240125-40,40,Hamilton / Richmond Hill,20250103
20241130-LE-9133,20:24:00,20:24:00,UN,Union Station,43.645195,-79.3806,08241224-LE,LE,Lakeshore East,20241130
20241223-17-17180,10:04:00,10:04:00,00732,Main St. W. @ Longwood Rd. S.,43.2590866,-79.901741,12240125-17,17,Waterloo / Hamilton,20241223
20241230-GT-3960,09:09:00,09:09:00,BR,Brampton Innovation District GO,43.6869087,-79.7628632,12240125-GT,KI,Kitchener,20241230
20241129-33-33291,11:35:00,11:35:00,00861,Main St. S. @ Bridge St.,43.6170883,-80.1415176,08241224-33,33,Guelph / North York,20241129
20241223-19-19500,16:36:00,16:36:00,01650,Yonge St. @ Northtown Way,43.7753067,-79.4142609,12240125-19,19,Mississauga / North York,20241223
20241212-19-19091,06:40:00,06:40:00,00019,Yorkdale Bus Terminal,43.7249374,-79.4488754,12240125-19,19,Mississauga / North York,20241212
20241228-LW-1133,20:45:00,20:45:00,MI,Mimico GO,43.616411,-79.497762,12240125-LW,LW,Lakeshore West,20241228
20241129-19-19261,10:09:00,10:09:00,02658,Dixie Transitway Station,43.6300478663032,-79.6146878930147,08241224-19,19,Mississauga / North York,20241129
20241225-96-96191,08:14:00,08:14:00,00300,Yonge St. @ North York Blvd.,43.7668343,-79.412468,12240125-96,96,Oshawa / Finch Express,20241225
20241228-33-33671,19:36:00,19:36:00,00868,Mill St. E. @ Fellows St. (Acton GO),43.633812,-80.0369797,12240125-33,33,Guelph / North York,20241228
20241210-65-65620,17:40:00,17:40:00,02300,Union Station Bus Terminal,43.644042,-79.376939,12240125-65,65,Newmarket / Toronto,20241210
20241209-21-21231,10:59:00,10:59:00,00932,Drew Centre @ Thompson Rd. S.,43.5256195,-79.8648529,12240125-21,21,Milton,20241209
20241211-17-17700,20:06:00,20:06:00,01714,Gordon St. @ Arkell Rd.,43.5137901,-80.1998749,12240125-17,17,Waterloo / Hamilton,20241211
20241227-17-17120,07:59:00,07:59:00,01712,Gordon St. @ Edinburgh Rd. S.,43.5163383,-80.2033386,12240125-17,17,Waterloo / Hamilton,20241227
20241205-41-41010,06:35:00,06:35:00,00350,Richmond Hill Centre,43.8401451,-79.4252853,08241224-41,41,Hamilton / Pickering,20241205
20241212-56-56061,07:25:00,07:25:00,00128,Unionville GO Bus,43.851935,-79.313774,12240125-56,56,Oshawa / Oakville,20241212
20241230-LE-9019,12:35:00,12:35:00,RO,Rouge Hill GO,43.780375,-79.130646,12240125-LE,LE,Lakeshore East,20241230
20241231-61-61370,11:41:00,11:41:00,02015,Yonge St. @ Edgar Ave.,43.8484573,-79.4321365,12240125-61,61,Richmond Hill,20241231
20250102-17-17191,09:34:00,09:34:00,02519,Guelph Central GO Bus,43.544932,-80.246388,12240125-17,17,Waterloo / Hamilton,20250102
20241217-ST-7638,23:31:00,23:31:00,KE,Kennedy GO,43.733045,-79.262706,12240125-ST,ST,Stouffville,20241217
20241213-19-19750,20:59:00,20:59:00,01648,Yonge St. @ Glendora Ave.,43.7586899,-79.4100418,12240125-19,19,Mississauga / North York,20241213
20241225-88-88280,09:16:00,09:16:00,00519,King St. E. @ Division St.,43.9116707,-78.6874466,12240125-88,88,Peterborough / Oshawa,20241225
20250103-94-94921,25:34:00,25:34:00,02208,Renforth Dr. @ Convair Dr.,43.6720657,-79.5930939,12240125-94,94,Pickering / Square One,20250103
20250101-94-94290,10:25:00,10:25:00,00147,Pickering GO Bus,43.830982,-79.084571,12240125-94,94,Pickering / Square One,20250101
20241128-32-32172,08:15:00,08:15:00,02709,Yonge St. @ Finch Ave.,43.7808519429722,-79.416002462366,08241224-32,32,Brampton Trinity Common / North York,20241128
20241222-52-52840,19:40:00,19:40:00,00128,Unionville GO Bus,43.851935,-79.313774,12240125-52,52,Oshawa / Hwy 407 Terminal,20241222
20241224-33-33691,19:27:00,19:27:00,00842,Guelph St. @ Sinclair Ave.,43.6499443,-79.8935242,12240125-33,33,Guelph / North York,20241224
20241206-17-17700,19:08:00,19:08:00,02153,Wilfrid Laurier University,43.4752655,-80.5272827,08241224-17,17,Waterloo / Hamilton,20241206
20241220-56-56441,15:45:00,15:45:00,02673,Hwy 407 Bus Terminal,43.7830465622674,-79.5232260682288,12240125-56,56,Oshawa / Oakville,20241220
20250101-88-88720,18:30:00,18:30:00,00159,Durham College Oshawa GO,43.870909,-78.88585,12240125-88,88,Peterborough / Oshawa,20250101
20241130-52-52891,21:48:00,21:48:00,02144,YMCA Blvd. @ Kennedy Rd.,43.8535728,-79.3085709,08241224-52,52,Oshawa / Hwy 407 Terminal,20241130
20241213-41-41230,11:02:00,11:02:00,02838,Sheppard Ave. E. @ Herons Hill Way,43.7754648931527,-79.3354883868647,12240125-41,41,Hamilton / Pickering,20241213
20241204-47-47041,07:52:00,07:52:00,01007,Main St. W. @ Caroline St. S.,43.2570419,-79.8766251,08241224-47,47,Hamilton / Hwy 407 Terminal,20241204
20241206-BR-6332,20:16:00,20:16:00,RU,Rutherford GO,43.838487,-79.498819,08241224-BR,BR,Barrie,20241206
20241211-GT-3320,14:59:00,14:59:00,UN,Union Station,43.645195,-79.3806,12240125-GT,KI,Kitchener,20241211
20241209-GT-3836,20:45:00,20:45:00,KI,Kitchener GO,43.455686,-80.49313,12240125-GT,KI,Kitchener,20241209
20241223-48-48260,07:25:00,07:25:00,00201,University of Guelph,43.5293732,-80.2252502,12240125-48,48,Guelph / Hwy 407 Terminal,20241223
20241216-27-27171,08:49:00,08:49:00,01137,Aquitaine Ave. @ Montevideo Rd.,43.5907898,-79.7561111,12240125-27,27,Milton / North York,20241216
20241206-56-56270,10:11:00,10:11:00,02839,Simcoe St. N. @ Richmond St. E.,43.8990287511044,-78.864162144326,08241224-56,56,Oshawa / Oakville,20241206
20241206-41-41241,09:02:00,09:02:00,00727,Liverpool Rd. @ Pickering Pkwy.,43.83309,-79.08914,08241224-41,41,Hamilton / Pickering,20241206
20241219-18-18690,16:30:00,16:30:00,01006,King St. W. @ Summers Ln. (Hamilton Place),43.2576485,-79.8717346,12240125-18,18,Lakeshore West,20241219
20241231-47-47910,23:06:00,23:06:00,01005,King St. W. @ Strathcona Ave. N.,43.2614555,-79.8850708,12240125-47,47,Hamilton / Hwy 407 Terminal,20241231
20250102-MI-2737,17:39:00,17:39:00,CO,Cooksville GO,43.582973,-79.623695,12240125-MI,MI,Milton,20250102
20241219-41-41780,21:02:00,21:02:00,02214,Erin Mills Transitway Station,43.5520363,-79.7003021,12240125-41,41,Hamilton / Pickering,20241219
20241227-70-70261,10:27:00,10:27:00,02193,Main St. @ Weldon Rd.,43.9682426,-79.2604752,12240125-70,70,Uxbridge / Mount Joy,20241227
20241214-LE-9031,18:12:00,18:12:00,WH,Whitby GO,43.86484,-78.93818,12240125-LE,LE,Lakeshore East,20241214
20241205-41-41330,10:55:00,10:55:00,00141,Hamilton GO Centre Bus,43.252945,-79.869586,08241224-41,41,Hamilton / Pickering,20241205
20241228-92-92581,17:10:00,17:10:00,00011,York Mills Bus Terminal,43.745079,-79.4064636,12240125-92,92,Oshawa / Yorkdale,20241228
20250102-40-40250,10:55:00,10:55:00,00350,Richmond Hill Centre,43.8401451,-79.4252853,12240125-40,40,Hamilton / Richmond Hill,20250102
20241204-31-31880,24:05:00,24:05:00,00221,Brampton Bus Terminal,43.6869087,-79.7628632,08241224-31,31,Guelph / Toronto,20241204
20241210-56-56512,15:48:00,15:48:00,02543,Simcoe St. N. @ Parkwood Crt.,43.905807,-78.867111,12240125-56,56,Oshawa / Oakville,20241210
20241210-40-40021,05:11:00,05:11:00,02163,Trafalgar Rd. @ Hwy. 407 Park & Ride,43.506545,-79.745813,12240125-40,40,Hamilton / Richmond Hill,20241210
20241213-92-92171,08:35:00,08:35:00,00170,Kingston Rd. @ Port Union Rd.,43.7991524,-79.145546,12240125-92,92,Oshawa / Yorkdale,20241213
20241206-33-33240,08:15:00,08:15:00,00837,Guelph St. @ Mill St.,43.6512375,-79.9233627,08241224-33,33,Guelph / North York,20241206
20241212-56-56391,14:20:00,14:20:00,00350,Richmond Hill Centre,43.8401451,-79.4252853,12240125-56,56,Oshawa / Oakville,20241212
20250103-33-33681,19:19:00,19:19:00,00847,Hwy. 7 @ Banting Rd.,43.6515427,-79.9443207,12240125-33,33,Guelph / North York,20250103
20241216-17-17270,12:09:00,12:09:00,01009,Main St. W. @ Macklin St. S.,43.2599144,-79.8979721,12240125-17,17,Waterloo / Hamilton,20241216
20241209-56-56541,16:27:00,16:27:00,01435,Trafalgar Rd. @ Burnhamthorpe Rd.,43.5013275,-79.7375031,12240125-56,56,Oshawa / Oakville,20241209
20241220-31-31923,26:14:00,26:14:00,00830,Guelph St. @ Lakeview Ave.,43.6330376,-80.0496826,12240125-31,31,Guelph / Toronto,20241220
20250102-27-27101,07:48:00,07:48:00,00816,Derry Rd. @ Trudeau Dr.,43.5284157,-79.8378067,12240125-27,27,Milton / North York,20250102
20241128-88-88721,20:51:00,20:51:00,00526,Durham Hwy. 2 @ Browview Rd.,43.9131012,-78.6224365,08241224-88,88,Peterborough / Oshawa,20241128
20241221-36-36181,08:20:00,08:20:00,01184,Clark Blvd. @ Kings Cross Rd.,43.7190437,-79.7124939,12240125-36,36,Brampton / North York Express,20241221
20241218-LW-1022,14:13:00,14:13:00,BU,Burlington GO,43.341265,-79.809141,12240125-LW,LW,Lakeshore West,20241218
20241228-47-47830,20:31:00,20:31:00,01002,King St. E. @ Hughson St. N.,43.2562103,-79.8672409,12240125-47,47,Hamilton / Hwy 407 Terminal,20241228
20241217-41-41274,11:58:00,11:58:00,02756,Consumers Rd. @ William Sylvester Dr.,43.770398,-79.33023,12240125-41,41,Hamilton / Pickering,20241217
20241221-21-21463,17:37:00,17:37:00,00730,Erin Mills Pkwy. @ Britannia Rd. W.,43.577713,-79.7318649,12240125-21,21,Milton,20241221
20241220-22-22220,08:02:00,08:02:00,00891,Thompson Rd. S. @ Childs Dr.,43.5241127,-79.8615265,12240125-22,22,Milton / Oakville,20241220
20250101-47-47311,10:40:00,10:40:00,02674,Hwy 407 Bus Terminal,43.7830713234851,-79.5244458372792,12240125-47,47,Hamilton / Hwy 407 Terminal,20250101
20241204-66-66591,18:30:00,18:30:00,02731,Davis Dr. W. @ Eagle St. W.,44.053617,-79.485558,08241224-66,66,East Gwillimbury / Hwy 407 Terminal,20241204
20241216-21-21863,24:01:00,24:01:00,02655,Hurontario St. @ Fairview Rd.,43.5875907610701,-79.6265046670912,12240125-21,21,Milton,20241216
20241222-LW-1735,21:44:00,21:44:00,UN,Union Station,43.645195,-79.3806,12240125-LW,LW,Lakeshore West,20241222
20241227-48-48220,07:17:00,07:17:00,01481,Derry Rd. W. @ Winston Churchill Blvd.,43.5877228,-79.7712631,12240125-48,48,Guelph / Hwy 407 Terminal,20241227
20250103-21-21833,23:19:00,23:19:00,01360,Rathburn Rd. W. @ Elora Dr.,43.5850639,-79.6535568,12240125-21,21,Milton,20250103
20241223-31-31201,09:13:00,09:13:00,00824,Guelph St. @ Armstrong Ave.,43.6494751,-79.8849487,12240125-31,31,Guelph / Toronto,20241223
20241130-LE-9027,17:09:00,17:09:00,UN,Union Station,43.645195,-79.3806,08241224-LE,LE,Lakeshore East,20241130
20241204-11-11061,07:39:00,07:39:00,02833,Louth St. @ St. Paul St. W.,43.145281,-79.260042,08241224-11,11,Brock University,20241204
20241218-48-48591,18:29:00,18:29:00,02627,Brock Rd. S. @ Gilmour Rd.,43.466629,-80.1415634,12240125-48,48,Guelph / Hwy 407 Terminal,20241218
20241208-96-96830,23:30:00,23:30:00,00736,Finch Bus Terminal,43.7819481,-79.4159088,12240125-96,96,Oshawa / Finch Express,20241208
20241129-LW-1860,07:41:00,07:41:00,BU,Burlington GO,43.341265,-79.809141,08241224-LW,LW,Lakeshore West,20241129
20241202-70-70380,13:12:00,13:12:00,00959,10953 Hwy. 48 @ Elgin Mills Rd. E.,43.9326401,-79.2737274,08241224-70,70,Uxbridge / Mount Joy,20241202
20241206-16-16891,25:17:00,25:17:00,01007,Main St. W. @ Caroline St. S.,43.2570419,-79.8766251,08241224-16,16,Hamilton / Toronto Express,20241206
20241129-33-33740,19:15:00,19:15:00,00822,Guelph St. @ Noble St.,43.6469536,-79.8575363,08241224-33,33,Guelph / North York,20241129
20241223-41-41521,19:36:00,19:36:00,01012,Main St. W. @ Ray St. S.,43.257885,-79.8809128,12240125-41,41,Hamilton / Pickering,20241223
20241217-41-41230,11:46:00,11:46:00,00971,Kingston Rd. @ Walnut Ln.,43.8308105,-79.0965042,12240125-41,41,Hamilton / Pickering,20241217
20241203-66-66751,20:23:00,20:23:00,02027,Yonge St. @ Green Ln. E.,44.0726738,-79.4845963,08241224-66,66,East Gwillimbury / Hwy 407 Terminal,20241203
20241212-37-37031,05:59:00,05:59:00,00249,Hurontario St. @ Mayfield Rd.,43.7334137,-79.8244095,12240125-37,37,Orangeville / Brampton,20241212
20250101-25-25751,21:15:00,21:15:00,00337,Brock Rd. @ McLean Rd. (Aberfoyle) Park & Ride,43.4609909,-80.133667,12240125-25,25,Waterloo / Mississauga,20250101
20241222-90-90001,05:35:00,05:35:00,02300,Union Station Bus Terminal,43.644042,-79.376939,12240125-90,90,Lakeshore East,20241222
20241218-17-17030,05:08:00,05:08:00,02153,Wilfrid Laurier University,43.4752655,-80.5272827,12240125-17,17,Waterloo / Hamilton,20241218
20241204-17-17740,22:07:00,22:07:00,01007,Main St. W. @ Caroline St. S.,43.2570419,-79.8766251,08241224-17,17,Waterloo / Hamilton,20241204
20241205-41-41061,08:43:00,08:43:00,01012,Main St. W. @ Ray St. S.,43.257885,-79.8809128,08241224-41,41,Hamilton / Pickering,20241205
20241211-56-56024,07:45:00,07:45:00,00137,Oakville GO Bus,43.455966,-79.681676,12240125-56,56,Oshawa / Oakville,20241211
20241218-25-25140,08:05:00,08:05:00,00337,Brock Rd. @ McLean Rd. (Aberfoyle) Park & Ride,43.4609909,-80.133667,12240125-25,25,Waterloo / Mississauga,20241218
20241214-29-29780,19:56:00,19:56:00,01718,Brock Rd. S. @ Maple Leaf Ln.,43.4715347,-80.1500168,12240125-29,29,Guelph / Mississauga,20241214
20241130-27-27101,07:20:00,07:20:00,00129,Meadowvale GO Bus,43.597499,-79.754517,08241224-27,27,Milton / North York,20241130
20241126-48-48061,07:20:00,07:20:00,02721,Gordon St. @ Stone Rd.,43.5272921676036,-80.2256214441709,08241224-48,48,Guelph / Hwy 407 Terminal,20241126
20241216-68-68830,18:49:00,18:49:00,01515,Holland St. E. @ Colborne St.,44.1152649,-79.5600662,12240125-68,68,Barrie / Newmarket,20241216
20241218-15-15261,13:21:00,13:21:00,02607,Wayne Gretzky Pwky. @ Henry St.,43.1545525,-80.2395554,12240125-15,15,Brantford / Aldershot,20241218
20241221-16-16361,13:12:00,13:12:00,01013,Main St. W. @ Poulette St.,43.2591286,-79.8864059,12240125-16,16,Hamilton / Toronto Express,20241221
20241202-17-17740,20:50:00,20:50:00,02519,Guelph Central GO Bus,43.544932,-80.246388,08241224-17,17,Waterloo / Hamilton,20241202
20241214-36-36360,13:25:00,13:25:00,00019,Yorkdale Bus Terminal,43.7249374,-79.4488754,12240125-36,36,Brampton / North York Express,20241214
20241209-33-33490,13:20:00,13:20:00,01706,Elizabeth St. @ Victoria Rd. S.,43.5553131,-80.2293396,12240125-33,33,Guelph / North York,20241209
20250101-96-96570,17:50:00,17:50:00,00736,Finch Bus Terminal,43.7819481,-79.4159088,12240125-96,96,Oshawa / Finch Express,20250101
20241127-17-17270,10:12:00,10:12:00,02819,Victoria St. N. @ Frederick St.,43.4661769073305,-80.4573893890337,08241224-17,17,Waterloo / Hamilton,20241127
20241210-33-33580,16:45:00,16:45:00,00221,Brampton Bus Terminal,43.6869087,-79.7628632,12240125-33,33,Guelph / North York,20241210
20241229-31-31931,26:21:00,26:21:00,00221,Brampton Bus Terminal,43.6869087,-79.7628632,12240125-31,31,Guelph / Toronto,20241229
20241213-94-94210,08:20:00,08:20:00,00147,Pickering GO Bus,43.830982,-79.084571,12240125-94,94,Pickering / Square One,20241213
20241213-41-41190,10:58:00,10:58:00,00726,Liverpool Rd. @ Pickering Pkwy.,43.83299,-79.0894,12240125-41,41,Hamilton / Pickering,20241213
20241219-41-41431,14:57:00,14:57:00,02771,Yonge St. @ Hwy. 407,43.8384664250903,-79.4293096916894,12240125-41,41,Hamilton / Pickering,20241219
20250103-MI-2710,06:50:00,06:50:00,SR,Streetsville GO,43.575584,-79.70882,12240125-MI,MI,Milton,20250103
20241204-25-25040,06:26:00,06:26:00,02151,Regional Rd. 25 @ Hwy. 401 Park & Ride,43.5274849,-79.9038162,08241224-25,25,Waterloo / Mississauga,20241204
20241209-48-48630,16:30:00,16:30:00,00129,Meadowvale GO Bus,43.597499,-79.754517,12240125-48,48,Guelph / Hwy 407 Terminal,20241209
20241129-94-94830,23:13:00,23:13:00,00020,Hwy. 401 @ Keele St.,43.7232399,-79.4819412,08241224-94,94,Pickering / Square One,20241129
20241225-29-29280,09:21:00,09:21:00,02151,Regional Rd. 25 @ Hwy. 401 Park & Ride,43.5274849,-79.9038162,12240125-29,29,Guelph / Mississauga,20241225
20241220-MI-2741,18:46:00,18:46:00,LS,Lisgar GO,43.590791,-79.788539,12240125-MI,MI,Milton,20241220
20241224-25-25460,16:07:00,16:07:00,02636,Winston Churchill Transitway Station,43.5417557,-79.7129898,12240125-25,25,Waterloo / Mississauga,20241224
20241216-33-33741,20:14:00,20:14:00,02712,Bovaird Dr. W. @ McLaughlin Rd. N.,43.6957585266119,-79.7981796900374,12240125-33,33,Guelph / North York,20241216
20241222-21-21755,22:39:00,22:39:00,02508,Derry Rd. W. @ Ninth Line,43.574543,-79.78685,12240125-21,21,Milton,20241222
20241221-88-88800,21:10:00,21:10:00,02501,Trent University,44.3569412,-78.2870331,12240125-88,88,Peterborough / Oshawa,20241221
20241222-21-21860,23:32:00,23:32:00,00811,Derry Rd. @ Thompson Rd. S.,43.5183742974875,-79.8485449007419,12240125-21,21,Milton,20241222
20241211-33-33490,13:52:00,13:52:00,00853,Main St. N. @ Moore Park Cres.,43.6549454,-79.9335709,12240125-33,33,Guelph / North York,20241211
20241224-54-54600,17:11:00,17:11:00,02113,Hwy. 48 @ 16th Ave.,43.8920631,-79.2641983,12240125-54,54,Markham / Hwy 407 Terminal,20241224
20241128-47-47910,23:00:00,23:00:00,00141,Hamilton GO Centre Bus,43.252945,-79.869586,08241224-47,47,Hamilton / Hwy 407 Terminal,20241128
20241129-19-19631,17:28:00,17:28:00,01647,Yonge St. @ Florence Ave.,43.7582703,-79.4102325,08241224-19,19,Mississauga / North York,20241129
20241127-40-40560,17:11:00,17:11:00,02208,Renforth Dr. @ Convair Dr.,43.6720657,-79.5930939,08241224-40,40,Hamilton / Richmond Hill,20241127
20241130-ST-7426,17:38:00,17:38:00,AG,Agincourt GO,43.78611,-79.284385,08241224-ST,ST,Stouffville,20241130
20241208-40-40371,12:47:00,12:47:00,02660,Renforth Transitway Station,43.6630754344014,-79.591281189024,12240125-40,40,Hamilton / Richmond Hill,20241208
20241218-92-92890,25:00:00,25:00:00,00344,Kingston Rd. @ Church St.,43.8546715,-79.0551224,12240125-92,92,Oshawa / Yorkdale,20241218
20250101-LW-1710,09:14:00,09:14:00,PO,Port Credit GO,43.555999,-79.586881,12240125-LW,LW,Lakeshore West,20250101
20250101-21-21164,07:32:00,07:32:00,01017,Derry Rd. @ Thompson Rd. S.,43.5167885,-79.8501892,12240125-21,21,Milton,20250101
20241223-33-33541,15:55:00,15:55:00,00222,Shopper's World,43.6678429,-79.7354813,12240125-33,33,Guelph / North York,20241223
20241126-37-37031,05:52:00,05:52:00,01258,Hurontario St. @ Bovaird Dr. W.,43.70655,-79.78753,08241224-37,37,Orangeville / Brampton,20241126
20241203-56-56010,05:18:00,05:18:00,02539,Brock Rd. @ Hwy. 407 Park & Ride,43.912596,-79.097042,08241224-56,56,Oshawa / Oakville,20241203
20241225-29-29561,16:10:00,16:10:00,02660,Renforth Transitway Station,43.6630754344014,-79.591281189024,12240125-29,29,Guelph / Mississauga,20241225
20241130-18-18420,10:38:00,10:38:00,01005,King St. W. @ Strathcona Ave. N.,43.2614555,-79.8850708,08241224-18,18,Lakeshore West,20241130
20241216-66-66101,07:40:00,07:40:00,00021,Hwy. 9 @ Hwy. 400 Park & Ride,44.0275345,-79.5959473,12240125-66,66,East Gwillimbury / Hwy 407 Terminal,20241216
20241205-71-71961,27:08:00,27:08:00,02141,YMCA Blvd. @ Kennedy Rd.,43.8532639,-79.3093185,08241224-71,71,Stouffville,20241205
20250102-36-36190,08:40:00,08:40:00,00022,Keele St. @ Hwy. 401,43.7216759,-79.4808273,12240125-36,36,Brampton / North York Express,20250102
20241210-17-17781,22:22:00,22:22:00,02519,Guelph Central GO Bus,43.544932,-80.246388,12240125-17,17,Waterloo / Hamilton,20241210
20241217-56-56041,05:12:00,05:12:00,00902,Trafalgar Rd. @ Iroquois Shore Rd.,43.4648666,-79.6877365,12240125-56,56,Oshawa / Oakville,20241217
20241227-21-21111,08:08:00,08:08:00,01137,Aquitaine Ave. @ Montevideo Rd.,43.5907898,-79.7561111,12240125-21,21,Milton,20241227
20241201-29-29751,20:10:00,20:10:00,02660,Renforth Transitway Station,43.6630754344014,-79.591281189024,08241224-29,29,Guelph / Mississauga,20241201
20241223-71-71111,07:41:00,07:41:00,02189,Hwy. 48 @ Hoover Park Dr.,43.9565964,-79.2791214,12240125-71,71,Stouffville,20241223
20241128-41-41671,20:30:00,20:30:00,00133,Square One,43.5946693,-79.6474915,08241224-41,41,Hamilton / Pickering,20241128
20250102-56-56081,08:57:00,08:57:00,02781,Simcoe St. N. @ Britannia Ave.,43.955632,-78.899736,12240125-56,56,Oshawa / Oakville,20250102
20241230-56-56720,22:14:00,22:14:00,02764,Trafalgar Rd. @ River Oaks Blvd. E.,43.47697,-79.70504,12240125-56,56,Oshawa / Oakville,20241230
20241219-47-47153,08:55:00,08:55:00,02728,Bramalea GO Bus,43.702269,-79.690111,12240125-47,47,Hamilton / Hwy 407 Terminal,20241219
20241208-52-52281,10:25:00,10:25:00,02674,Hwy 407 Bus Terminal,43.7830713234851,-79.5244458372792,12240125-52,52,Oshawa / Hwy 407 Terminal,20241208
20250103-GT-3416,12:02:00,12:02:00,MA,Malton GO,43.705153,-79.63823,12240125-GT,KI,Kitchener,20250103
20241201-52-52621,16:48:00,16:48:00,02144,YMCA Blvd. @ Kennedy Rd.,43.8535728,-79.3085709,08241224-52,52,Oshawa / Hwy 407 Terminal,20241201
20250102-GT-3320,14:41:00,14:41:00,WE,Weston GO,43.70022,-79.514671,12240125-GT,KI,Kitchener,20250102
20241227-17-17601,17:39:00,17:39:00,00180,Aldershot GO Bus,43.313036,-79.855903,12240125-17,17,Waterloo / Hamilton,20241227
20241127-17-17601,18:12:00,18:12:00,02627,Brock Rd. S. @ Gilmour Rd.,43.466629,-80.1415634,08241224-17,17,Waterloo / Hamilton,20241127
20241216-56-56371,14:04:00,14:04:00,02144,YMCA Blvd. @ Kennedy Rd.,43.8535728,-79.3085709,12240125-56,56,Oshawa / Oakville,20241216
20241205-19-19431,13:53:00,13:53:00,01654,Yonge St. @ Ellerslie Ave.,43.7724152,-79.4139328,08241224-19,19,Mississauga / North York,20241205
20241224-33-33261,09:36:00,09:36:00,02712,Bovaird Dr. W. @ McLaughlin Rd. N.,43.6957585266119,-79.7981796900374,12240125-33,33,Guelph / North York,20241224
20241219-32-32711,19:02:00,19:02:00,01645,Yonge St. @ Cummer Ave.,43.7875671,-79.4172745,12240125-32,32,Brampton Trinity Common / North York,20241219
20241223-LW-1023,15:17:00,15:17:00,UN,Union Station,43.645195,-79.3806,12240125-LW,LW,Lakeshore West,20241223
20250102-19-19670,19:08:00,19:08:00,01653,Yonge St. @ Elmwood Ave.,43.7664719,-79.4120407,12240125-19,19,Mississauga / North York,20250102
20241218-96-96281,10:12:00,10:12:00,01644,Yonge St. @ Churchill Ave.,43.7741737,-79.4143219,12240125-96,96,Oshawa / Finch Express,20241218
20241209-22-22191,08:22:00,08:22:00,02647,Trafalgar Rd. @ Dundas St. E.,43.4877993708847,-79.7192931589981,12240125-22,22,Milton / Oakville,20241209
20241204-21-21863,24:38:00,24:38:00,02844,Thomas St. @ Erin Mills Pkwy.,43.5708464147711,-79.7214376670635,08241224-21,21,Milton,20241204
20241220-LE-9340,25:40:00,25:40:00,AJ,Ajax GO,43.847766,-79.041372,12240125-LE,LE,Lakeshore East,20241220
20241214-21-21750,21:20:00,21:20:00,00189,Erindale GO Bus,43.567861,-79.667632,12240125-21,21,Milton,20241214
20241210-41-41323,12:05:00,12:05:00,00144,University of Toronto Scarborough,43.7843628,-79.1851273,12240125-41,41,Hamilton / Pickering,20241210
20241219-41-41431,14:47:00,14:47:00,02757,Consumers Rd. @ William Sylvester Dr.,43.770562,-79.330273,12240125-41,41,Hamilton / Pickering,20241219
20241213-70-70261,10:38:00,10:38:00,08045,Old Elm GO Bus,43.9899019821539,-79.2374567924724,12240125-70,70,Uxbridge / Mount Joy,20241213
20241222-12-12721,19:57:00,19:57:00,00177,Burlington GO,43.3404415392208,-79.8094994945172,12240125-12,12,Niagara Falls / Toronto,20241222
20241205-41-41431,17:22:00,17:22:00,01007,Main St. W. @ Caroline St. S.,43.2570419,-79.8766251,08241224-41,41,Hamilton / Pickering,20241205
20241204-27-27501,15:27:00,15:27:00,01644,Yonge St. @ Churchill Ave.,43.7741737,-79.4143219,08241224-27,27,Milton / North York,20241204
20241230-37-37671,19:11:00,19:11:00,01292,Hurontario St. @ Travelled Rd.,43.8571777,-79.9916916,12240125-37,37,Orangeville / Brampton,20241230
20241231-32-32531,16:55:00,16:55:00,02018,Yonge St. @ Elgin St.,43.810688,-79.4231033,12240125-32,32,Brampton Trinity Common / North York,20241231
20241216-32-32461,16:19:00,16:19:00,01655,Yonge St. @ Norton Ave.,43.7721901,-79.4134216,12240125-32,32,Brampton Trinity Common / North York,20241216
20241128-47-47921,26:40:00,26:40:00,00310,McMaster University,43.2617264,-79.9225693,08241224-47,47,Hamilton / Hwy 407 Terminal,20241128
20241218-48-48570,14:40:00,14:40:00,02845,Gordon St. @ Clair Rd. W.,43.5020608534142,-80.1915893520694,12240125-48,48,Guelph / Hwy 407 Terminal,20241218
20241126-96-96191,09:00:00,09:00:00,00031,Whitby GO Bus,43.8653526,-78.9379272,08241224-96,96,Oshawa / Finch Express,20241126
20241216-71-71710,18:19:00,18:19:00,02574,Markham Rd. @ Castlemore Ave.,43.9044647,-79.2672577,12240125-71,71,Stouffville,20241216
20241218-19-19091,07:04:00,07:04:00,02658,Dixie Transitway Station,43.6300478663032,-79.6146878930147,12240125-19,19,Mississauga / North York,20241218
20241205-GT-3035,21:04:00,21:04:00,UN,Union Station,43.645195,-79.3806,08241224-GT,KI,Kitchener,20241205
20241201-15-15900,22:05:00,22:05:00,02612,Wayne Gretzky Pkwy. @ Chatham St.,43.144886,-80.2353592,08241224-15,15,Brantford / Aldershot,20241201
20250102-19-19210,09:16:00,09:16:00,01650,Yonge St. @ Northtown Way,43.7753067,-79.4142609,12240125-19,19,Mississauga / North York,20250102
20250102-54-54851,23:55:00,23:55:00,00121,Mount Joy GO Bus,43.900455,-79.263649,12240125-54,54,Markham / Hwy 407 Terminal,20250102
20241219-56-56310,11:25:00,11:25:00,02684,Simcoe St. @ Britannia Ave.,43.9558385161942,-78.8994952290358,12240125-56,56,Oshawa / Oakville,20241219
20241128-56-56431,14:48:00,14:48:00,08041,Bramalea GO Bus,43.702269,-79.69011,08241224-56,56,Oshawa / Oakville,20241128
20241210-21-21181,09:10:00,09:10:00,01455,Erin Mills Pkwy. @ Vista Blvd.,43.5736008,-79.7274475,12240125-21,21,Milton,20241210
20241223-32-32100,07:02:00,07:02:00,00299,Yonge St. @ Elmhurst Ave.,43.7634468,-79.4115524,12240125-32,32,Brampton Trinity Common / North York,20241223
20241206-88-88430,10:36:00,10:36:00,00540,King St. W. @ Roenigk Dr.,43.9127769,-78.6950073,08241224-88,88,Peterborough / Oshawa,20241206
20250101-92-92521,17:09:00,17:09:00,00327,Dundas St. @ Garden St.,43.8822479,-78.9310532,12240125-92,92,Oshawa / Yorkdale,20250101
20241210-LE-9019,12:23:00,12:23:00,AJ,Ajax GO,43.847766,-79.041372,12240125-LE,LE,Lakeshore East,20241210
20241219-33-33240,08:10:00,08:10:00,00853,Main St. N. @ Moore Park Cres.,43.6549454,-79.9335709,12240125-33,33,Guelph / North York,20241219
20241204-41-41261,10:02:00,10:02:00,00358,Centennial College,43.7854233,-79.2290802,08241224-41,41,Hamilton / Pickering,20241204
20241209-27-27660,18:08:00,18:08:00,01243,Erin Mills Pkwy. @ Millcreek Dr.,43.5906754,-79.7408752,12240125-27,27,Milton / North York,20241209
20241127-94-94020,04:45:00,04:45:00,02816,Scarborough Centre Bus Terminal,43.77486,-79.26088,08241224-94,94,Pickering / Square One,20241127
20241231-33-33571,17:49:00,17:49:00,00889,Queen St. @ Churchill Rd. N.,43.6374321,-80.0283279,12240125-33,33,Guelph / North York,20241231
20241222-92-92720,19:25:00,19:25:00,02749,Simcoe St. S. @ Athol St. E.,43.896376,-78.862941,12240125-92,92,Oshawa / Yorkdale,20241222
20241225-27-27341,12:15:00,12:15:00,02586,Financial Dr. @ Syntex Crt.,43.611037345833,-79.7488204602084,12240125-27,27,Milton / North York,20241225
20241209-19-19040,05:22:00,05:22:00,02659,Dixie Transitway Station,43.6300128947218,-79.6146254772841,12240125-19,19,Mississauga / North York,20241209
20241208-21-21404,13:57:00,13:57:00,01243,Erin Mills Pkwy. @ Millcreek Dr.,43.5906754,-79.7408752,12240125-21,21,Milton,20241208
20250103-88-88950,25:28:00,25:28:00,00510,Durham Hwy. 2 @ Bennett Rd.,43.9123993,-78.6490173,12240125-88,88,Peterborough / Oshawa,20250103
20241226-19-19670,19:05:00,19:05:00,01648,Yonge St. @ Glendora Ave.,43.7586899,-79.4100418,12240125-19,19,Mississauga / North York,20241226
20241220-67-67601,17:15:00,17:15:00,00013,Finch Bus Terminal,43.7821732,-79.4150925,12240125-67,67,Keswick / North York,20241220
20241217-92-92271,10:45:00,10:45:00,00728,Kingston Rd. @ Salem Rd.,43.8634377,-79.0152206,12240125-92,92,Oshawa / Yorkdale,20241217
20250102-19-19621,17:52:00,17:52:00,02660,Renforth Transitway Station,43.6630754344014,-79.591281189024,12240125-19,19,Mississauga / North York,20250102
20241212-56-56541,18:09:00,18:09:00,02144,YMCA Blvd. @ Kennedy Rd.,43.8535728,-79.3085709,12240125-56,56,Oshawa / Oakville,20241212
20241208-21-21855,24:30:00,24:30:00,01482,Winston Churchill Blvd. @ Derry Rd. W.,43.5865669,-79.7686844,12240125-21,21,Milton,20241208
20241212-21-21051,06:39:00,06:39:00,01436,Streetsville GO Station Parking Lot,43.5774536,-79.7130508,12240125-21,21,Milton,20241212
20241225-36-36520,16:13:00,16:13:00,02680,Bramalea Rd. @ Balmoral Dr.,43.7154679735916,-79.7054676815027,12240125-36,36,Brampton / North York Express,20241225
20241226-25-25393,14:10:00,14:10:00,02800,University of Waterloo Terminal,43.474444,-80.540546,12240125-25,25,Waterloo / Mississauga,20241226
20241206-41-41460,17:22:00,17:22:00,00634,Kingston Rd. @ Whites Rd.,43.8194008,-79.1146774,08241224-41,41,Hamilton / Pickering,20241206
20241220-36-36570,17:05:00,17:05:00,00022,Keele St. @ Hwy. 401,43.7216759,-79.4808273,12240125-36,36,Brampton / North York Express,20241220
20241204-33-33791,22:07:00,22:07:00,02801,Maple Ave. @ Mountainview Rd. N.,43.655002,-79.911197,08241224-33,33,Guelph / North York,20241204
20241228-88-88560,15:30:00,15:30:00,02502,Peterborough Bus Terminal,44.3045998,-78.3224182,12240125-88,88,Peterborough / Oshawa,20241228
20241210-21-21381,12:30:00,12:30:00,02300,Union Station Bus Terminal,43.644042,-79.376939,12240125-21,21,Milton,20241210
20241227-19-19561,16:21:00,16:21:00,00299,Yonge St. @ Elmhurst Ave.,43.7634468,-79.4115524,12240125-19,19,Mississauga / North York,20241227
20241216-18-18900,23:13:00,23:13:00,01001,King St. W. @ Caroline St. N.,43.258461,-79.8752441,12240125-18,18,Lakeshore West,20241216
20250103-31-31231,08:57:00,08:57:00,01374,Steeles Ave. E. @ Kennedy Rd. S.,43.6751747,-79.7234573,12240125-31,31,Guelph / Toronto,20250103
20241202-27-27101,07:21:00,07:21:00,01246,Mississauga Rd. @ Argentia Rd.,43.6003456,-79.7399902,08241224-27,27,Milton / North York,20241202
20241230-56-56000,06:13:00,06:13:00,02163,Trafalgar Rd. @ Hwy. 407 Park & Ride,43.506545,-79.745813,12240125-56,56,Oshawa / Oakville,20241230
20241218-LE-9025,15:10:00,15:10:00,OS,Durham College Oshawa GO,43.871004,-78.884807,12240125-LE,LE,Lakeshore East,20241218
20241202-19-19530,16:54:00,16:54:00,01655,Yonge St. @ Norton Ave.,43.7721901,-79.4134216,08241224-19,19,Mississauga / North York,20241202
20241228-33-33371,12:22:00,12:22:00,01311,Wellington St. W. @ George St. S.,43.6841316,-79.7590332,12240125-33,33,Guelph / North York,20241228
20241227-BR-6919,14:41:00,14:41:00,KC,King City GO,43.920037,-79.526886,12240125-BR,BR,Barrie,20241227
20241225-31-31941,26:01:00,26:01:00,02300,Union Station Bus Terminal,43.644042,-79.376939,12240125-31,31,Guelph / Toronto,20241225
20241212-21-21311,11:45:00,11:45:00,01363,Rathburn Rd. W. @ Elora Dr.,43.5863609,-79.6529465,12240125-21,21,Milton,20241212
20241213-LW-1739,23:55:00,23:55:00,EX,Exhibition GO,43.635549,-79.418927,12240125-LW,LW,Lakeshore West,20241213
20241229-LW-1718,13:07:00,13:07:00,CL,Clarkson GO,43.513127,-79.633206,12240125-LW,LW,Lakeshore West,20241229
20241201-21-21211,11:16:00,11:16:00,01446,Erin Mills Pkwy. @ McFarren Blvd.,43.5677757,-79.7184906,08241224-21,21,Milton,20241201
20241223-32-32152,07:38:00,07:38:00,00006,Yonge St. @ Hwy. 407,43.8319817,-79.4283829,12240125-32,32,Brampton Trinity Common / North York,20241223
20241209-27-27320,11:02:00,11:02:00,01440,Mississauga Rd. @ Royal Bank Dr.,43.6087875,-79.7501144,12240125-27,27,Milton / North York,20241209
20241202-25-25811,22:59:00,22:59:00,02184,Sportsworld Dr. @ Hwy. 8 Park & Ride,43.4099274,-80.3925095,08241224-25,25,Waterloo / Mississauga,20241202
20241207-31-31890,23:10:00,23:10:00,00214,Bovaird Dr. W. @ Mississauga Rd.,43.665844,-79.830719,12240125-31,31,Guelph / Toronto,20241207
20241201-18-18060,05:33:00,05:33:00,00820,Fairview St. @ Maple Ave.,43.3287392,-79.8214798,08241224-18,18,Lakeshore West,20241201
20241225-21-21404,13:29:00,13:29:00,02736,Derry Rd. @ Sauve St.,43.523968,-79.842312,12240125-21,21,Milton,20241225
20241211-ST-7707,06:54:00,06:54:00,MK,Milliken GO,43.823227,-79.301785,12240125-ST,ST,Stouffville,20241211
20241129-40-40160,08:40:00,08:40:00,PA,Pearson Airport Terminal 1,43.6821671,-79.6132584,08241224-40,40,Hamilton / Richmond Hill,20241129
20250101-92-92050,05:36:00,05:36:00,00326,Dundas St. @ Garden St.,43.8823242,-78.9318085,12240125-92,92,Oshawa / Yorkdale,20250101
20241205-30-30261,09:35:00,09:35:00,02586,Financial Dr. @ Syntex Crt.,43.611037345833,-79.7488204602084,08241224-30,30,Kitchener / Bramalea,20241205
20241220-32-32261,11:49:00,11:49:00,01650,Yonge St. @ Northtown Way,43.7753067,-79.4142609,12240125-32,32,Brampton Trinity Common / North York,20241220
20241212-29-29511,16:57:00,16:57:00,02677,Gordon St. @ Clair Rd. E.,43.5002316951943,-80.1886650066085,12240125-29,29,Guelph / Mississauga,20241212
20241211-LW-1308,08:34:00,08:34:00,UN,Union Station,43.645195,-79.3806,12240125-LW,LW,Lakeshore West,20241211
20250103-41-41701,22:12:00,22:12:00,01012,Main St. W. @ Ray St. S.,43.257885,-79.8809128,12240125-41,41,Hamilton / Pickering,20250103
20241204-ST-7626,17:52:00,17:52:00,UI,Unionville GO,43.851689,-79.314332,08241224-ST,ST,Stouffville,20241204
20241229-33-33440,14:13:00,14:13:00,01701,Elizabeth St. @ Beaumont Cr.,43.5557289,-80.2199249,12240125-33,33,Guelph / North York,20241229
20241126-33-33822,21:56:00,21:56:00,02745,Main St. N. @ Williams Pkwy.,43.6983315029567,-79.7768451099263,08241224-33,33,Guelph / North York,20241126
20241215-19-19311,11:10:00,11:10:00,00019,Yorkdale Bus Terminal,43.7249374,-79.4488754,12240125-19,19,Mississauga / North York,20241215
20241219-32-32320,13:29:00,13:29:00,02023,Yonge St. @ Glen Cameron Rd.,43.8057404,-79.4222031,12240125-32,32,Brampton Trinity Common / North York,20241219
20241222-29-29411,14:45:00,14:45:00,02519,Guelph Central GO Bus,43.544932,-80.246388,12240125-29,29,Guelph / Mississauga,20241222
20241212-19-19531,15:42:00,15:42:00,01644,Yonge St. @ Churchill Ave.,43.7741737,-79.4143219,12240125-19,19,Mississauga / North York,20241212
20241220-56-56500,18:21:00,18:21:00,01441,Trafalgar Rd. @ Burnhamthorpe Rd.,43.5017662,-79.7387924,12240125-56,56,Oshawa / Oakville,20241220
20241226-31-31931,26:24:00,26:24:00,01454,Main St. N. @ Williams Pkwy.,43.6986389,-79.7768326,12240125-31,31,Guelph / Toronto,20241226
20241203-29-29600,15:56:00,15:56:00,02151,Regional Rd. 25 @ Hwy. 401 Park & Ride,43.5274849,-79.9038162,08241224-29,29,Guelph / Mississauga,20241203
20241228-30-30605,19:05:00,19:05:00,02800,University of Waterloo Terminal,43.474444,-80.540546,12240125-30,30,Kitchener / Bramalea,20241228
20241207-71-71461,15:17:00,15:17:00,00127,Bullock Dr. @ Austin Dr.,43.8673248,-79.292511,12240125-71,71,Stouffville,20241207
20241224-27-27100,06:06:00,06:06:00,01483,Winston Churchill Blvd. @ Vanderbilt Rd.,43.5848999,-79.7667999,12240125-27,27,Milton / North York,20241224
20241207-94-94410,13:40:00,13:40:00,02816,Scarborough Centre Bus Terminal,43.77486,-79.26088,12240125-94,94,Pickering / Square One,20241207
20241127-41-41391,13:11:00,13:11:00,02651,Military Trail. @ Pan Am Dr.,43.7877954094493,-79.1904190458541,08241224-41,41,Hamilton / Pickering,20241127
20241222-90-90160,08:50:00,08:50:00,00159,Durham College Oshawa GO,43.870909,-78.88585,12240125-90,90,Lakeshore East,20241222
20241221-21-21541,18:40:00,18:40:00,00133,Square One,43.5946693,-79.6474915,12240125-21,21,Milton,20241221
20241218-70-70651,17:47:00,17:47:00,01731,Toronto St. S. @ Mill St.,44.1039429,-79.1250305,12240125-70,70,Uxbridge / Mount Joy,20241218
20241230-27-27101,07:36:00,07:36:00,01196,Derry Rd. W. @ Danton Promenade,43.5863571,-79.7735062,12240125-27,27,Milton / North York,20241230
20241202-41-41603,18:11:00,18:11:00,02757,Consumers Rd. @ William Sylvester Dr.,43.770562,-79.330273,08241224-41,41,Hamilton / Pickering,20241202
20241203-32-32150,07:35:00,07:35:00,02088,Yonge St. @ Thornhill Ave.,43.8253212,-79.4267273,08241224-32,32,Brampton Trinity Common / North York,20241203
20241126-41-41062,07:10:00,07:10:00,08041,Bramalea GO Bus,43.702269,-79.69011,08241224-41,41,Hamilton / Pickering,20241126
20241220-56-56431,15:24:00,15:24:00,02021,Yonge St. @ Garden Ave.,43.8384552,-79.4297791,12240125-56,56,Oshawa / Oakville,20241220
20241222-92-92431,14:42:00,14:42:00,00634,Kingston Rd. @ Whites Rd.,43.8194008,-79.1146774,12240125-92,92,Oshawa / Yorkdale,20241222
20241220-40-40951,27:25:00,27:25:00,00139,Dundas St. @ Hwy. 407 Park & Ride,43.3892708,-79.8287811,12240125-40,40,Hamilton / Richmond Hill,20241220
20241217-71-71171,09:00:00,09:00:00,00973,Tenth Line @ Forsyth Farm Dr.,43.9838295,-79.2332001,12240125-71,71,Stouffville,20241217
20241212-32-32290,12:12:00,12:12:00,00300,Yonge St. @ North York Blvd.,43.7668343,-79.412468,12240125-32,32,Brampton Trinity Common / North York,20241212
20241224-37-37610,15:35:00,15:35:00,01170,Broadway @ 4th St.,43.9208946,-80.0893478,12240125-37,37,Orangeville / Brampton,20241224
20241217-LW-1021,14:17:00,14:17:00,UN,Union Station,43.645195,-79.3806,12240125-LW,LW,Lakeshore West,20241217
20241221-LE-9234,22:37:00,22:37:00,OS,Durham College Oshawa GO,43.871004,-78.884807,12240125-LE,LE,Lakeshore East,20241221
20241128-40-40291,11:53:00,11:53:00,01010,Main St. W. @ Paisley Ave. S.,43.2584991,-79.9061661,08241224-40,40,Hamilton / Richmond Hill,20241128
20241214-15-15170,06:58:00,06:58:00,02620,McMaster Innovation Park,43.2564278,-79.9013138,12240125-15,15,Brantford / Aldershot,20241214
20241211-19-19610,17:15:00,17:15:00,00132,Square One,43.5945549,-79.6475983,12240125-19,19,Mississauga / North York,20241211
20241127-61-61381,13:29:00,13:29:00,02003,Yonge St. @ Clarissa Dr.,43.8620453,-79.4350204,08241224-61,61,Richmond Hill,20241127
20241228-25-25180,09:40:00,09:40:00,00132,Square One,43.5945549,-79.6475983,12240125-25,25,Waterloo / Mississauga,20241228
20241230-47-47810,20:37:00,20:37:00,01004,King St. W. @ Pearl St. N.,43.2602654,-79.8814011,12240125-47,47,Hamilton / Hwy 407 Terminal,20241230
20241130-40-40330,12:07:00,12:07:00,02659,Dixie Transitway Station,43.6300128947218,-79.6146254772841,08241224-40,40,Hamilton / Richmond Hill,20241130
20241206-32-32301,13:36:00,13:36:00,01987,Yonge St. @ Bay Thorn Dr.,43.8248672,-79.4262924,08241224-32,32,Brampton Trinity Common / North York,20241206
20241208-21-21710,19:45:00,19:45:00,00191,Aquitaine Ave. @ Meadowvale Town Centre Circle,43.5847511,-79.7606812,12240125-21,21,Milton,20241208
20241209-40-40300,11:35:00,11:35:00,00132,Square One,43.5945549,-79.6475983,12240125-40,40,Hamilton / Richmond Hill,20241209
20250101-LE-9122,16:15:00,16:15:00,WH,Whitby GO,43.86484,-78.93818,12240125-LE,LE,Lakeshore East,20250101
20250103-41-41430,16:08:00,16:08:00,02816,Scarborough Centre Bus Terminal,43.77486,-79.26088,12240125-41,41,Hamilton / Pickering,20250103
20241127-LW-1977,18:31:00,18:31:00,WR,West Harbour GO,43.266775,-79.866222,08241224-LW,LW,Lakeshore West,20241127
20241229-33-33360,12:00:00,12:00:00,00201,University of Guelph,43.5293732,-80.2252502,12240125-33,33,Guelph / North York,20241229
20241225-31-31161,09:49:00,09:49:00,02720,Elizabeth St. @ Victoria Rd.,43.5552971023133,-80.2303018528565,12240125-31,31,Guelph / Toronto,20241225
20241219-36-36121,06:55:00,06:55:00,00011,York Mills Bus Terminal,43.745079,-79.4064636,12240125-36,36,Brampton / North York Express,20241219
20241209-56-56221,08:55:00,08:55:00,02783,Trafalgar Rd. @ Upper Middle Rd. E.,43.475362,-79.702112,12240125-56,56,Oshawa / Oakville,20241209
20241206-21-21111,07:30:00,07:30:00,01363,Rathburn Rd. W. @ Elora Dr.,43.5863609,-79.6529465,08241224-21,21,Milton,20241206
20241209-LE-9037,21:15:00,21:15:00,WH,Whitby GO,43.86484,-78.93818,12240125-LE,LE,Lakeshore East,20241209
20241207-94-94830,23:33:00,23:33:00,02209,Renforth Dr. @ Convair Dr.,43.6723671,-79.5936432,12240125-94,94,Pickering / Square One,20241207
20241218-40-40151,08:52:00,08:52:00,01009,Main St. W. @ Macklin St. S.,43.2599144,-79.8979721,12240125-40,40,Hamilton / Richmond Hill,20241218
20241219-71-71840,23:24:00,23:24:00,02574,Markham Rd. @ Castlemore Ave.,43.9044647,-79.2672577,12240125-71,71,Stouffville,20241219
20241209-41-41731,20:43:00,20:43:00,02837,Sheppard Ave. E. @ Herons Hill Way,43.7757323805573,-79.335555520699,12240125-41,41,Hamilton / Pickering,20241209
20241127-GT-3420,13:56:00,13:56:00,BE,Bramalea GO,43.7022591,-79.6887512,08241224-GT,KI,Kitchener,20241127
20241203-47-47594,17:42:00,17:42:00,00139,Dundas St. @ Hwy. 407 Park & Ride,43.3892708,-79.8287811,08241224-47,47,Hamilton / Hwy 407 Terminal,20241203
20241230-21-21372,12:21:00,12:21:00,01444,Eglinton Ave. W. @ Credit Valley Rd.,43.5619164,-79.7030182,12240125-21,21,Milton,20241230
20241205-61-61320,10:38:00,10:38:00,02096,Yonge St. @ Weldrick Rd. W.,43.8605232,-79.4349365,08241224-61,61,Richmond Hill,20241205
20241214-21-21151,08:12:00,08:12:00,01445,Eglinton Ave. W. @ Summersky Crt.,43.5625381,-79.7030792,12240125-21,21,Milton,20241214
20241205-12-12871,24:53:00,24:53:00,02402,St. Catharines Fairview Mall,43.178627,-79.2452545,08241224-12,12,Niagara Falls / Toronto,20241205
20241206-27-27240,08:34:00,08:34:00,01198,Derry Rd. W. @ Lisgar Dr.,43.5767136,-79.7842407,08241224-27,27,Milton / North York,20241206
20241202-29-29130,06:01:00,06:01:00,02151,Regional Rd. 25 @ Hwy. 401 Park & Ride,43.5274849,-79.9038162,08241224-29,29,Guelph / Mississauga,20241202
20241204-41-41222,10:20:00,10:20:00,02674,Hwy 407 Bus Terminal,43.7830713234851,-79.5244458372792,08241224-41,41,Hamilton / Pickering,20241204
20241219-56-56290,12:00:00,12:00:00,00350,Richmond Hill Centre,43.8401451,-79.4252853,12240125-56,56,Oshawa / Oakville,20241219
20241205-41-41310,10:31:00,10:31:00,01002,King St. E. @ Hughson St. N.,43.2562103,-79.8672409,08241224-41,41,Hamilton / Pickering,20241205
20241218-32-32110,07:07:00,07:07:00,01654,Yonge St. @ Ellerslie Ave.,43.7724152,-79.4139328,12240125-32,32,Brampton Trinity Common / North York,20241218
20241204-41-41122,09:19:00,09:19:00,02541,Morningside Ave. @ Tams Rd.,43.791924,-79.195305,08241224-41,41,Hamilton / Pickering,20241204
20241130-27-27221,08:37:00,08:37:00,00008,Yonge St. @ Sheppard Ave.,43.7615967,-79.4111938,08241224-27,27,Milton / North York,20241130
20241209-18-18841,21:42:00,21:42:00,00732,Main St. W. @ Longwood Rd. S.,43.2590866,-79.901741,12240125-18,18,Lakeshore West,20241209
20241211-94-94500,16:25:00,16:25:00,00019,Yorkdale Bus Terminal,43.7249374,-79.4488754,12240125-94,94,Pickering / Square One,20241211
20250103-54-54540,16:30:00,16:30:00,00128,Unionville GO Bus,43.851935,-79.313774,12240125-54,54,Markham / Hwy 407 Terminal,20250103
20241130-29-29671,19:30:00,19:30:00,01711,Gordon St. @ Kortright Rd. E.,43.5224457,-80.2131119,08241224-29,29,Guelph / Mississauga,20241130
20241216-GT-3031,19:32:00,19:32:00,MA,Malton GO,43.705153,-79.63823,12240125-GT,KI,Kitchener,20241216
20241129-61-61771,21:24:00,21:24:00,02003,Yonge St. @ Clarissa Dr.,43.8620453,-79.4350204,08241224-61,61,Richmond Hill,20241129
20241211-31-31883,24:58:00,24:58:00,01306,Main St. S. @ Clarence St.,43.6800728,-79.752037,12240125-31,31,Guelph / Toronto,20241211
20241220-56-56291,10:23:00,10:23:00,00939,Sheridan College,43.4698067,-79.6977158,12240125-56,56,Oshawa / Oakville,20241220
20241205-27-27160,08:05:00,08:05:00,00022,Keele St. @ Hwy. 401,43.7216759,-79.4808273,08241224-27,27,Milton / North York,20241205
20250103-48-48061,06:36:00,06:36:00,01137,Aquitaine Ave. @ Montevideo Rd.,43.5907898,-79.7561111,12240125-48,48,Guelph / Hwy 407 Terminal,20250103
20241129-66-66680,16:25:00,16:25:00,02683,Green Lane E. @ Yonge St.,44.073913,-79.481138,08241224-66,66,East Gwillimbury / Hwy 407 Terminal,20241129
20241126-56-56661,18:25:00,18:25:00,02163,Trafalgar Rd. @ Hwy. 407 Park & Ride,43.506545,-79.745813,08241224-56,56,Oshawa / Oakville,20241126
20241230-19-19391,12:57:00,12:57:00,00008,Yonge St. @ Sheppard Ave.,43.7615967,-79.4111938,12240125-19,19,Mississauga / North York,20241230
20241203-17-17390,15:06:00,15:06:00,01011,Main St. W. @ Pearl St. S.,43.2583809,-79.8828964,08241224-17,17,Waterloo / Hamilton,20241203
20241220-12-12700,18:18:00,18:18:00,02406,Casablanca Blvd. @ QEW Park & Ride,43.2047997,-79.5964279,12240125-12,12,Niagara Falls / Toronto,20241220
20241127-29-29421,14:01:00,14:01:00,02635,Winston Churchill Transitway Station,43.5419006,-79.7131805,08241224-29,29,Guelph / Mississauga,20241127
20241214-33-33891,25:43:00,25:43:00,01703,Elizabeth St. @ Stevenson St. S.,43.5534325,-80.2346191,12240125-33,33,Guelph / North York,20241214
20241214-16-16290,08:58:00,08:58:00,01001,King St. W. @ Caroline St. N.,43.258461,-79.8752441,12240125-16,16,Hamilton / Toronto Express,20241214
20241215-71-71250,09:25:00,09:25:00,01924,Main St. @ Church St. N.,43.9717598,-79.2452011,12240125-71,71,Stouffville,20241215
20241204-25-25243,09:40:00,09:40:00,02151,Regional Rd. 25 @ Hwy. 401 Park & Ride,43.5274849,-79.9038162,08241224-25,25,Waterloo / Mississauga,20241204
20241215-16-16440,12:49:00,12:49:00,00178,King St. W. @ Dundurn St. N.,43.2622643,-79.8875809,12240125-16,16,Hamilton / Toronto Express,20241215
20250102-31-31131,08:55:00,08:55:00,00803,Alma St. @ Fall St.,43.6138763,-80.1490631,12240125-31,31,Guelph / Toronto,20250102
20241203-67-67240,09:40:00,09:40:00,00736,Finch Bus Terminal,43.7819481,-79.4159088,08241224-67,67,Keswick / North York,20241203
20241216-12-12590,15:28:00,15:28:00,02646,Niagara College,43.1524845920884,-79.166533938966,12240125-12,12,Niagara Falls / Toronto,20241216
20241205-21-21412,12:56:00,12:56:00,01245,Erin Mills Pkwy. @ Windwood Dr.,43.5805435,-79.7364044,08241224-21,21,Milton,20241205
20250102-48-48420,12:27:00,12:27:00,01481,Derry Rd. W. @ Winston Churchill Blvd.,43.5877228,-79.7712631,12240125-48,48,Guelph / Hwy 407 Terminal,20250102
20241220-17-17270,11:01:00,11:01:00,01714,Gordon St. @ Arkell Rd.,43.5137901,-80.1998749,12240125-17,17,Waterloo / Hamilton,20241220
20241201-92-92811,23:11:00,23:11:00,00333,King St. W. @ Stevenson Rd.,43.8933334,-78.8819885,08241224-92,92,Oshawa / Yorkdale,20241201
20241212-BR-6935,22:01:00,22:01:00,UN,Union Station,43.645195,-79.3806,12240125-BR,BR,Barrie,20241212
20250103-40-40581,17:15:00,17:15:00,02209,Renforth Dr. @ Convair Dr.,43.6723671,-79.5936432,12240125-40,40,Hamilton / Richmond Hill,20250103
20241228-21-21020,04:57:00,04:57:00,00811,Derry Rd. @ Thompson Rd. S.,43.5183742974875,-79.8485449007419,12240125-21,21,Milton,20241228
20241128-68-68680,15:35:00,15:35:00,00086,Bradford GO,44.115852,-79.557507,08241224-68,68,Barrie / Newmarket,20241128
20241231-12-12110,06:30:00,06:30:00,00820,Fairview St. @ Maple Ave.,43.3287392,-79.8214798,12240125-12,12,Niagara Falls / Toronto,20241231
20241222-29-29480,15:12:00,15:12:00,02661,Renforth Transitway Station,43.662995090205,-79.5911181123626,12240125-29,29,Guelph / Mississauga,20241222
20241202-LW-1039,23:53:00,23:53:00,CL,Clarkson GO,43.513127,-79.633206,08241224-LW,LW,Lakeshore West,20241202
20241202-11-11071,08:28:00,08:28:00,02406,Casablanca Blvd. @ QEW Park & Ride,43.2047997,-79.5964279,08241224-11,11,Brock University,20241202
20241202-21-21051,06:05:00,06:05:00,02655,Hurontario St. @ Fairview Rd.,43.5875907610701,-79.6265046670912,08241224-21,21,Milton,20241202
20250102-12-12311,10:43:00,10:43:00,00139,Dundas St. @ Hwy. 407 Park & Ride,43.3892708,-79.8287811,12240125-12,12,Niagara Falls / Toronto,20250102
20241126-70-70261,10:28:00,10:28:00,00118,Main St. @ Edward St. (Stouffville GO),43.97041,-79.25075,08241224-70,70,Uxbridge / Mount Joy,20241126
20241223-31-31710,18:03:00,18:03:00,00212,Guelph St. @ King St.,43.6464195,-79.8608932,12240125-31,31,Guelph / Toronto,20241223
20241206-22-22721,19:22:00,19:22:00,02785,Trafalgar Rd. @ Glenashton Dr.,43.480786,-79.709716,08241224-22,22,Milton / Oakville,20241206
20241223-ST-7425,15:48:00,15:48:00,UI,Unionville GO,43.851689,-79.314332,12240125-ST,ST,Stouffville,20241223
20241126-33-33861,23:14:00,23:14:00,01311,Wellington St. W. @ George St. S.,43.6841316,-79.7590332,08241224-33,33,Guelph / North York,20241126
20241202-41-41122,08:25:00,08:25:00,02674,Hwy 407 Bus Terminal,43.7830713234851,-79.5244458372792,08241224-41,41,Hamilton / Pickering,20241202
20241204-18-18901,23:44:00,23:44:00,01011,Main St. W. @ Pearl St. S.,43.2583809,-79.8828964,08241224-18,18,Lakeshore West,20241204
20241206-27-27101,06:30:00,06:30:00,00013,Finch Bus Terminal,43.7821732,-79.4150925,08241224-27,27,Milton / North York,20241206
20241219-11-11490,10:48:00,10:48:00,02406,Casablanca Blvd. @ QEW Park & Ride,43.2047997,-79.5964279,12240125-11,11,Brock University,20241219
20241213-16-16761,21:26:00,21:26:00,01013,Main St. W. @ Poulette St.,43.2591286,-79.8864059,12240125-16,16,Hamilton / Toronto Express,20241213
20241231-94-94250,10:07:00,10:07:00,02821,Yonge St. @ Poyntz Ave.,43.760053363685,-79.4107512589806,12240125-94,94,Pickering / Square One,20241231
20241226-40-40330,11:16:00,11:16:00,01005,King St. W. @ Strathcona Ave. N.,43.2614555,-79.8850708,12240125-40,40,Hamilton / Richmond Hill,20241226
20241202-19-19651,18:54:00,18:54:00,02660,Renforth Transitway Station,43.6630754344014,-79.591281189024,08241224-19,19,Mississauga / North York,20241202
20250103-92-92571,17:36:00,17:36:00,00312,Kingston Rd. @ Fairport Rd.,43.8234673,-79.1067047,12240125-92,92,Oshawa / Yorkdale,20250103
20241215-21-21060,06:07:00,06:07:00,01195,Derry Rd. W. @ Danton Promenade,43.5858917,-79.7736511,12240125-21,21,Milton,20241215
20241202-47-47850,21:37:00,21:37:00,01004,King St. W. @ Pearl St. N.,43.2602654,-79.8814011,08241224-47,47,Hamilton / Hwy 407 Terminal,20241202
20241220-LW-1713,11:22:00,11:22:00,CL,Clarkson GO,43.513127,-79.633206,12240125-LW,LW,Lakeshore West,20241220
20241128-17-17700,21:11:00,21:11:00,01011,Main St. W. @ Pearl St. S.,43.2583809,-79.8828964,08241224-17,17,Waterloo / Hamilton,20241128
20250103-25-25340,11:30:00,11:30:00,02799,University of Waterloo Terminal,43.474393,-80.539507,12240125-25,25,Waterloo / Mississauga,20250103
20241204-56-56422,13:45:00,13:45:00,00159,Durham College Oshawa GO,43.870909,-78.88585,08241224-56,56,Oshawa / Oakville,20241204
20241219-56-56131,09:01:00,09:01:00,02141,YMCA Blvd. @ Kennedy Rd.,43.8532639,-79.3093185,12240125-56,56,Oshawa / Oakville,20241219
20250101-33-33200,08:50:00,08:50:00,00888,Queen St. @ Churchill Rd. S.,43.6370354,-80.0284729,12240125-33,33,Guelph / North York,20250101
20241218-92-92311,11:49:00,11:49:00,02676,Dundas St. @ Halls Rd.,43.8710634547294,-78.9813988024596,12240125-92,92,Oshawa / Yorkdale,20241218
20241225-94-94001,04:25:00,04:25:00,02816,Scarborough Centre Bus Terminal,43.77486,-79.26088,12240125-94,94,Pickering / Square One,20241225
20241230-33-33501,15:31:00,15:31:00,01321,Main St. N. @ Vodden St. E.,43.6925087,-79.7685547,12240125-33,33,Guelph / North York,20241230
20241220-21-21700,19:26:00,19:26:00,01197,Derry Rd. W. @ Forest Park Dr.,43.5812836,-79.7789993,12240125-21,21,Milton,20241220
20241212-LW-1860,07:41:00,07:41:00,BU,Burlington GO,43.341265,-79.809141,12240125-LW,LW,Lakeshore West,20241212
20241228-LW-1136,22:00:00,22:00:00,UN,Union Station,43.645195,-79.3806,12240125-LW,LW,Lakeshore West,20241228
20241224-41-41701,18:55:00,18:55:00,00147,Pickering GO Bus,43.830982,-79.084571,12240125-41,41,Hamilton / Pickering,20241224
20241215-71-71341,12:17:00,12:17:00,00125,Bullock Drive @ McCowan Road (Centennial GO),43.87161,-79.28832,12240125-71,71,Stouffville,20241215
20241129-21-21311,12:58:00,12:58:00,00895,Thompson Rd. S. @ McCuaig Dr.,43.5221252,-79.8587494,08241224-21,21,Milton,20241129
20241211-41-41050,08:34:00,08:34:00,02541,Morningside Ave. @ Tams Rd.,43.791924,-79.195305,12240125-41,41,Hamilton / Pickering,20241211
20250101-33-33671,17:35:00,17:35:00,00011,York Mills Bus Terminal,43.745079,-79.4064636,12240125-33,33,Guelph / North York,20250101
20241221-92-92521,16:45:00,16:45:00,02571,Kingston Rd. @ Glenanna Rd.,43.8386154,-79.0863266,12240125-92,92,Oshawa / Yorkdale,20241221
20241211-33-33240,08:31:00,08:31:00,02696,Guelph St. @ Hall Rd.,43.6486902942995,-79.8765444720472,12240125-33,33,Guelph / North York,20241211
20241209-48-48260,07:30:00,07:30:00,01716,Gordon St. @ Clairfields Dr. W.,43.5049019,-80.1943359,12240125-48,48,Guelph / Hwy 407 Terminal,20241209
20241220-32-32453,16:28:00,16:28:00,02092,Yonge St. @ Uplands Ave.,43.8269348,-79.4267807,12240125-32,32,Brampton Trinity Common / North York,20241220
20241130-21-21790,21:29:00,21:29:00,00807,Derry Rd. @ Fourth Line,43.5258636,-79.8403397,08241224-21,21,Milton,20241130
20241209-33-33891,24:05:00,24:05:00,00354,Hurontario St. @ Hwy. 407 Park & Ride,43.6521416,-79.7108765,12240125-33,33,Guelph / North York,20241209
20241227-56-56470,17:54:00,17:54:00,02700,Trafalgar Rd. @ Dundas St.,43.4879119435482,-79.7199831176779,12240125-56,56,Oshawa / Oakville,20241227
20241213-33-33100,06:42:00,06:42:00,00991,Hurontario St. @ Ray Lawson Blvd.,43.658577,-79.7236023,12240125-33,33,Guelph / North York,20241213
20241231-48-48830,21:47:00,21:47:00,01326,Millcreek Dr. @ Millrace Crt.,43.5927086,-79.7469559,12240125-48,48,Guelph / Hwy 407 Terminal,20241231
20241227-25-25380,14:15:00,14:15:00,00132,Square One,43.5945549,-79.6475983,12240125-25,25,Waterloo / Mississauga,20241227
20241205-70-70300,10:54:00,10:54:00,02171,Tenth Line @ Sleepy Hollow Ln.,44.0002556,-79.2371979,08241224-70,70,Uxbridge / Mount Joy,20241205
20241210-27-27501,15:30:00,15:30:00,00300,Yonge St. @ North York Blvd.,43.7668343,-79.412468,12240125-27,27,Milton / North York,20241210
20241217-71-71670,17:23:00,17:23:00,02113,Hwy. 48 @ 16th Ave.,43.8920631,-79.2641983,12240125-71,71,Stouffville,20241217
20241205-33-33550,15:27:00,15:27:00,00296,Mount Pleasant GO Bus,43.674976,-79.822181,08241224-33,33,Guelph / North York,20241205
20241201-GT-3511,10:25:00,10:25:00,BE,Bramalea GO,43.7022591,-79.6887512,08241224-GT,KI,Kitchener,20241201
20241126-41-41393,13:30:00,13:30:00,02576,Kingston Rd. @ Fairport Rd.,43.8238487,-79.1063309,08241224-41,41,Hamilton / Pickering,20241126
20241225-LW-1733,20:44:00,20:44:00,UN,Union Station,43.645195,-79.3806,12240125-LW,LW,Lakeshore West,20241225
20241206-40-40120,06:45:00,06:45:00,02759,King St. W. @ Queen St. N.,43.25943,-79.878547,08241224-40,40,Hamilton / Richmond Hill,20241206
20241216-11-11490,11:36:00,11:36:00,01004,King St. W. @ Pearl St. N.,43.2602654,-79.8814011,12240125-11,11,Brock University,20241216
20241129-68-68461,17:15:00,17:15:00,02688,Burton Ave. @ Granville St.,44.3716585556774,-79.6905053283273,08241224-68,68,Barrie / Newmarket,20241129
20241212-31-31020,04:03:00,04:03:00,00841,Guelph St. @ Sinclair Ave.,43.6496468,-79.8933182,12240125-31,31,Guelph / Toronto,20241212
20241202-18-18022,05:10:00,05:10:00,00181,Clarkson GO Bus,43.512831,-79.633109,08241224-18,18,Lakeshore West,20241202
20250101-92-92510,15:22:00,15:22:00,00174,Dundas St. @ Brock St.,43.8800888,-78.9416351,12240125-92,92,Oshawa / Yorkdale,20250101
20241203-40-40710,19:01:00,19:01:00,01002,King St. E. @ Hughson St. N.,43.2562103,-79.8672409,08241224-40,40,Hamilton / Richmond Hill,20241203
20241218-31-31131,07:27:00,07:27:00,01374,Steeles Ave. E. @ Kennedy Rd. S.,43.6751747,-79.7234573,12240125-31,31,Guelph / Toronto,20241218
20250103-70-70760,20:51:00,20:51:00,00553,Durham Hwy. 47 @ Goodwood Rd.,44.0338898,-79.2021637,12240125-70,70,Uxbridge / Mount Joy,20250103
20241218-22-22631,17:47:00,17:47:00,01016,Derry Rd. @ Thompson Rd. S.,43.516552,-79.8508148,12240125-22,22,Milton / Oakville,20241218
20241212-19-19040,05:28:00,05:28:00,02208,Renforth Dr. @ Convair Dr.,43.6720657,-79.5930939,12240125-19,19,Mississauga / North York,20241212
20241231-56-56481,15:31:00,15:31:00,01435,Trafalgar Rd. @ Burnhamthorpe Rd.,43.5013275,-79.7375031,12240125-56,56,Oshawa / Oakville,20241231
20250102-27-27540,15:25:00,15:25:00,00808,Derry Rd. @ James Snow Pkwy.,43.5304413,-79.8352661,12240125-27,27,Milton / North York,20250102
20241128-12-12850,23:10:00,23:10:00,00139,Dundas St. @ Hwy. 407 Park & Ride,43.3892708,-79.8287811,08241224-12,12,Niagara Falls / Toronto,20241128
20241220-LW-1972,14:50:00,14:50:00,OA,Oakville GO,43.455594,-79.682242,12240125-LW,LW,Lakeshore West,20241220
20241127-61-61901,25:20:00,25:20:00,00062,Richmond Hill GO Bus,43.875786,-79.426228,08241224-61,61,Richmond Hill,20241127
20250101-21-21655,20:41:00,20:41:00,01137,Aquitaine Ave. @ Montevideo Rd.,43.5907898,-79.7561111,12240125-21,21,Milton,20250101
20241229-31-31890,23:00:00,23:00:00,02413,Georgetown GO Bus,43.6560287,-79.9186783,12240125-31,31,Guelph / Toronto,20241229
20241203-19-19131,07:09:00,07:09:00,00079,Yonge St. @ North York Blvd. (Mel Lastman Square),43.7681007,-79.4128571,08241224-19,19,Mississauga / North York,20241203
20241225-16-16301,11:37:00,11:37:00,01013,Main St. W. @ Poulette St.,43.2591286,-79.8864059,12240125-16,16,Hamilton / Toronto Express,20241225
20241225-68-68691,21:00:00,21:00:00,01534,Yonge St. @ Lynn St.,44.3300591,-79.6207199,12240125-68,68,Barrie / Newmarket,20241225
20241230-16-16320,09:56:00,09:56:00,01002,King St. E. @ Hughson St. N.,43.2562103,-79.8672409,12240125-16,16,Hamilton / Toronto Express,20241230
20241127-LW-1256,07:47:00,07:47:00,UN,Union Station,43.645195,-79.3806,08241224-LW,LW,Lakeshore West,20241127
20241225-LE-9013,10:09:00,10:09:00,UN,Union Station,43.645195,-79.3806,12240125-LE,LE,Lakeshore East,20241225
20241209-ST-7432,20:46:00,20:46:00,MK,Milliken GO,43.823227,-79.301785,12240125-ST,ST,Stouffville,20241209
20241227-25-25260,10:55:00,10:55:00,02214,Erin Mills Transitway Station,43.5520363,-79.7003021,12240125-25,25,Waterloo / Mississauga,20241227
20241219-47-47416,14:37:00,14:37:00,08041,Bramalea GO Bus,43.702269,-79.69011,12240125-47,47,Hamilton / Hwy 407 Terminal,20241219
20241203-40-40150,07:26:00,07:26:00,00139,Dundas St. @ Hwy. 407 Park & Ride,43.3892708,-79.8287811,08241224-40,40,Hamilton / Richmond Hill,20241203
20241227-41-41590,17:20:00,17:20:00,00138,Bronte Rd. @ Hwy. 407 Park & Ride,43.4457626,-79.7920151,12240125-41,41,Hamilton / Pickering,20241227
20250101-BR-6334,21:26:00,21:26:00,DW,Downsview Park GO,43.7536333,-79.47835,12240125-BR,BR,Barrie,20250101
20241204-92-92311,11:00:00,11:00:00,00011,York Mills Bus Terminal,43.745079,-79.4064636,08241224-92,92,Oshawa / Yorkdale,20241204
20241223-27-27220,07:50:00,07:50:00,00807,Derry Rd. @ Fourth Line,43.5258636,-79.8403397,12240125-27,27,Milton / North York,20241223
20241231-15-15541,17:01:00,17:01:00,01010,Main St. W. @ Paisley Ave. S.,43.2584991,-79.9061661,12240125-15,15,Brantford / Aldershot,20241231
20241205-29-29251,09:31:00,09:31:00,02635,Winston Churchill Transitway Station,43.5419006,-79.7131805,08241224-29,29,Guelph / Mississauga,20241205
20250102-18-18981,26:50:00,26:50:00,00884,Plains Rd. E. @ Waterdown Rd.,43.3070107,-79.8525772,12240125-18,18,Lakeshore West,20250102
20241230-21-21745,20:39:00,20:39:00,01325,Millcreek Dr. @ Erin Mills Pkwy.,43.5904884,-79.7418976,12240125-21,21,Milton,20241230
20241129-71-71111,07:47:00,07:47:00,01926,Main St. @ Stouffer St.,43.9731178,-79.2386246,08241224-71,71,Stouffville,20241129
20241210-37-37371,13:27:00,13:27:00,00221,Brampton Bus Terminal,43.6869087,-79.7628632,12240125-37,37,Orangeville / Brampton,20241210
20241214-12-12482,14:42:00,14:42:00,00820,Fairview St. @ Maple Ave.,43.3287392,-79.8214798,12240125-12,12,Niagara Falls / Toronto,20241214
20241224-48-48720,17:51:00,17:51:00,01718,Brock Rd. S. @ Maple Leaf Ln.,43.4715347,-80.1500168,12240125-48,48,Guelph / Hwy 407 Terminal,20241224
20241221-LE-9112,10:20:00,10:20:00,UN,Union Station,43.645195,-79.3806,12240125-LE,LE,Lakeshore East,20241221
20250101-21-21423,16:30:00,16:30:00,01455,Erin Mills Pkwy. @ Vista Blvd.,43.5736008,-79.7274475,12240125-21,21,Milton,20250101
20241225-29-29371,13:28:00,13:28:00,01715,Gordon St. @ Arkell Rd.,43.5140228,-80.199501,12240125-29,29,Guelph / Mississauga,20241225
20241205-27-27671,20:10:00,20:10:00,00892,Thompson Rd. S. @ Childs Dr.,43.5239563,-79.8612061,08241224-27,27,Milton / North York,20241205
20241217-27-27360,12:47:00,12:47:00,02772,Yonge St. @ Sheppard Ave.,43.762187996328,-79.4109345055581,12240125-27,27,Milton / North York,20241217
20241205-88-88520,12:51:00,12:51:00,00540,King St. W. @ Roenigk Dr.,43.9127769,-78.6950073,08241224-88,88,Peterborough / Oshawa,20241205
20241212-41-41423,15:50:00,15:50:00,00133,Square One,43.5946693,-79.6474915,12240125-41,41,Hamilton / Pickering,20241212
20241129-48-48061,06:14:00,06:14:00,00354,Hurontario St. @ Hwy. 407 Park & Ride,43.6521416,-79.7108765,08241224-48,48,Guelph / Hwy 407 Terminal,20241129
20241216-11-11371,16:24:00,16:24:00,02780,Brock University,43.118136,-79.249325,12240125-11,11,Brock University,20241216
20241206-40-40451,15:22:00,15:22:00,02163,Trafalgar Rd. @ Hwy. 407 Park & Ride,43.506545,-79.745813,08241224-40,40,Hamilton / Richmond Hill,20241206
20241219-38-38220,06:33:00,06:33:00,01248,Finch Ave. @ Kenview Blvd.,43.7401047,-79.6440582,12240125-38,38,Bolton / Malton,20241219
20241215-71-71210,08:35:00,08:35:00,00959,10953 Hwy. 48 @ Elgin Mills Rd. E.,43.9326401,-79.2737274,12240125-71,71,Stouffville,20241215
20241208-31-31070,06:45:00,06:45:00,00296,Mount Pleasant GO Bus,43.674976,-79.822181,12240125-31,31,Guelph / Toronto,20241208
20241229-40-40381,14:27:00,14:27:00,01007,Main St. W. @ Caroline St. S.,43.2570419,-79.8766251,12240125-40,40,Hamilton / Richmond Hill,20241229
20241202-32-32162,07:17:00,07:17:00,02680,Bramalea Rd. @ Balmoral Dr.,43.7154679735916,-79.7054676815027,08241224-32,32,Brampton Trinity Common / North York,20241202
20241214-12-12721,19:59:00,19:59:00,00819,Fairview St. @ Maple Ave.,43.3295403,-79.8197861,12240125-12,12,Niagara Falls / Toronto,20241214
20241225-LE-9241,24:16:00,24:16:00,EG,Eglinton GO,43.739621,-79.23231,12240125-LE,LE,Lakeshore East,20241225
20241128-94-94151,08:22:00,08:22:00,01647,Yonge St. @ Florence Ave.,43.7582703,-79.4102325,08241224-94,94,Pickering / Square One,20241128
20250101-94-94090,06:44:00,06:44:00,00723,McCowan Rd. @ Triton Rd.,43.7755547,-79.2528763,12240125-94,94,Pickering / Square One,20250101
20241130-33-33751,20:22:00,20:22:00,00222,Shopper's World,43.6678429,-79.7354813,08241224-33,33,Guelph / North York,20241130
20241202-71-71171,08:44:00,08:44:00,00958,10953 Hwy. 48 @ Elgin Mills Rd. E.,43.9325027,-79.273407,08241224-71,71,Stouffville,20241202
20241207-33-33200,08:50:00,08:50:00,00888,Queen St. @ Churchill Rd. S.,43.6370354,-80.0284729,12240125-33,33,Guelph / North York,20241207
20241220-GT-3320,14:30:00,14:30:00,MA,Malton GO,43.705153,-79.63823,12240125-GT,KI,Kitchener,20241220
20250101-40-40791,22:29:00,22:29:00,00139,Dundas St. @ Hwy. 407 Park & Ride,43.3892708,-79.8287811,12240125-40,40,Hamilton / Richmond Hill,20250101
20241214-71-71810,21:55:00,21:55:00,00128,Unionville GO Bus,43.851935,-79.313774,12240125-71,71,Stouffville,20241214
20250102-17-17350,13:01:00,13:01:00,01712,Gordon St. @ Edinburgh Rd. S.,43.5163383,-80.2033386,12240125-17,17,Waterloo / Hamilton,20250102
20241210-56-56511,18:19:00,18:19:00,02779,Baldwin St. @ Hwy. 407 Park & Ride,43.9449147110778,-78.9599680461866,12240125-56,56,Oshawa / Oakville,20241210
20241212-21-21010,05:11:00,05:11:00,00189,Erindale GO Bus,43.567861,-79.667632,12240125-21,21,Milton,20241212
20250103-56-56340,13:01:00,13:01:00,02021,Yonge St. @ Garden Ave.,43.8384552,-79.4297791,12240125-56,56,Oshawa / Oakville,20250103
20241203-33-33110,06:21:00,06:21:00,00942,Bovaird Dr. W. @ Lake Louise Dr.,43.6811218,-79.8139801,08241224-33,33,Guelph / North York,20241203
20241229-LW-1010,08:23:00,08:23:00,BO,Bronte GO,43.416774,-79.722294,12240125-LW,LW,Lakeshore West,20241229
20241216-56-56100,07:27:00,07:27:00,02815,Cornell Bus Terminal,43.879742,-79.232527,12240125-56,56,Oshawa / Oakville,20241216
20241217-21-21351,13:38:00,13:38:00,01203,Derry Rd. W. @ Tenth Line W.,43.5840569,-79.7763901,12240125-21,21,Milton,20241217
20241216-33-33552,17:25:00,17:25:00,00011,York Mills Bus Terminal,43.745079,-79.4064636,12240125-33,33,Guelph / North York,20241216
20250103-25-25460,14:30:00,14:30:00,02799,University of Waterloo Terminal,43.474393,-80.539507,12240125-25,25,Waterloo / Mississauga,20250103
20241128-27-27100,06:05:00,06:05:00,01481,Derry Rd. W. @ Winston Churchill Blvd.,43.5877228,-79.7712631,08241224-27,27,Milton / North York,20241128
20241204-22-22631,17:48:00,17:48:00,00894,Thompson Rd. S. @ Laurier Ave.,43.5199051,-79.8556519,08241224-22,22,Milton / Oakville,20241204
20241213-LW-1024,15:25:00,15:25:00,BO,Bronte GO,43.416774,-79.722294,12240125-LW,LW,Lakeshore West,20241213
20241128-37-37611,18:33:00,18:33:00,01174,Broadway @ John St.,43.9187775,-80.0992432,08241224-37,37,Orangeville / Brampton,20241128
20241227-92-92471,14:45:00,14:45:00,00019,Yorkdale Bus Terminal,43.7249374,-79.4488754,12240125-92,92,Oshawa / Yorkdale,20241227
20250103-RH-5208,07:41:00,07:41:00,RI,Richmond Hill GO,43.874307,-79.426167,12240125-RH,RH,Richmond Hill,20250103
20241228-92-92841,23:10:00,23:10:00,00011,York Mills Bus Terminal,43.745079,-79.4064636,12240125-92,92,Oshawa / Yorkdale,20241228
20241127-48-48160,05:45:00,05:45:00,01708,Gordon St. @ Stone Rd.,43.5271797,-80.2259216,08241224-48,48,Guelph / Hwy 407 Terminal,20241127
20241203-65-65620,16:32:00,16:32:00,00303,Wellington St. E. @ Bayview Ave.,44.0047264,-79.4445038,08241224-65,65,Newmarket / Toronto,20241203
20241231-33-33442,14:08:00,14:08:00,00223,Shopper's World,43.6675682,-79.7358246,12240125-33,33,Guelph / North York,20241231
20241206-40-40591,18:23:00,18:23:00,00139,Dundas St. @ Hwy. 407 Park & Ride,43.3892708,-79.8287811,08241224-40,40,Hamilton / Richmond Hill,20241206
20241218-17-17481,17:10:00,17:10:00,02818,Victoria St. N. @ Frederick St.,43.4663507673236,-80.4579750554575,12240125-17,17,Waterloo / Hamilton,20241218
20241212-31-31231,09:13:00,09:13:00,00221,Brampton Bus Terminal,43.6869087,-79.7628632,12240125-31,31,Guelph / Toronto,20241212
20241206-47-47021,05:51:00,05:51:00,00139,Dundas St. @ Hwy. 407 Park & Ride,43.3892708,-79.8287811,08241224-47,47,Hamilton / Hwy 407 Terminal,20241206
20241216-66-66680,16:20:00,16:20:00,00276,East Gwillimbury GO Bus,44.078506,-79.456539,12240125-66,66,East Gwillimbury / Hwy 407 Terminal,20241216
20241230-41-41701,22:09:00,22:09:00,01009,Main St. W. @ Macklin St. S.,43.2599144,-79.8979721,12240125-41,41,Hamilton / Pickering,20241230
20241211-40-40341,13:25:00,13:25:00,00141,Hamilton GO Centre Bus,43.252945,-79.869586,12240125-40,40,Hamilton / Richmond Hill,20241211
20241229-33-33551,17:45:00,17:45:00,00868,Mill St. E. @ Fellows St. (Acton GO),43.633812,-80.0369797,12240125-33,33,Guelph / North York,20241229
20241217-21-21393,14:45:00,14:45:00,00341,Lisgar GO Bus,43.591504,-79.788224,12240125-21,21,Milton,20241217
20241205-88-88811,23:03:00,23:03:00,00306,Clarington Blvd. @ Durham Hwy. 2 (Bowmanville) Park & Ride,43.9078712,-78.7046204,08241224-88,88,Peterborough / Oshawa,20241205
20241216-37-37451,16:33:00,16:33:00,01454,Main St. N. @ Williams Pkwy.,43.6986389,-79.7768326,12240125-37,37,Orangeville / Brampton,20241216
20241202-LE-9134,22:02:00,22:02:00,PIN,Pickering GO,43.831576,-79.084594,08241224-LE,LE,Lakeshore East,20241202
20241129-48-48231,10:22:00,10:22:00,02677,Gordon St. @ Clair Rd. E.,43.5002316951943,-80.1886650066085,08241224-48,48,Guelph / Hwy 407 Terminal,20241129
20241227-32-32261,12:00:00,12:00:00,02012,Yonge St. @ Doncaster Ave.,43.8016968,-79.4208908,12240125-32,32,Brampton Trinity Common / North York,20241227
20241231-96-96631,17:40:00,17:40:00,00300,Yonge St. @ North York Blvd.,43.7668343,-79.412468,12240125-96,96,Oshawa / Finch Express,20241231
20241204-36-36380,12:43:00,12:43:00,02680,Bramalea Rd. @ Balmoral Dr.,43.7154679735916,-79.7054676815027,08241224-36,36,Brampton / North York Express,20241204
20241129-88-88950,25:24:00,25:24:00,02532,King St. W. @ Scugog St.,43.9128571,-78.6923294,08241224-88,88,Peterborough / Oshawa,20241129
20241225-21-21901,25:31:00,25:31:00,01203,Derry Rd. W. @ Tenth Line W.,43.5840569,-79.7763901,12240125-21,21,Milton,20241225
20241231-48-48231,09:40:00,09:40:00,00129,Meadowvale GO Bus,43.597499,-79.754517,12240125-48,48,Guelph / Hwy 407 Terminal,20241231
20241214-47-47881,25:47:00,25:47:00,01007,Main St. W. @ Caroline St. S.,43.2570419,-79.8766251,12240125-47,47,Hamilton / Hwy 407 Terminal,20241214
20241230-GT-3977,19:14:00,19:14:00,GL,Guelph Central GO,43.544353,-80.246917,12240125-GT,KI,Kitchener,20241230
20241208-21-21580,17:30:00,17:30:00,00815,Derry Rd. @ Trudeau Dr.,43.5277672,-79.8381882,12240125-21,21,Milton,20241208
20241218-ST-7412,10:31:00,10:31:00,KE,Kennedy GO,43.733045,-79.262706,12240125-ST,ST,Stouffville,20241218
20241209-61-61811,22:24:00,22:24:00,02056,Yonge St. @ May Ave.,43.8639069,-79.435379,12240125-61,61,Richmond Hill,20241209
20241203-41-41130,08:43:00,08:43:00,00350,Richmond Hill Centre,43.8401451,-79.4252853,08241224-41,41,Hamilton / Pickering,20241203
20241130-19-19860,23:53:00,23:53:00,01655,Yonge St. @ Norton Ave.,43.7721901,-79.4134216,08241224-19,19,Mississauga / North York,20241130
20241202-56-56441,14:28:00,14:28:00,02647,Trafalgar Rd. @ Dundas St. E.,43.4877993708847,-79.7192931589981,08241224-56,56,Oshawa / Oakville,20241202
20241222-70-70451,14:53:00,14:53:00,00692,Toronto St. N. @ Albert St.,44.1093521,-79.1225128,12240125-70,70,Uxbridge / Mount Joy,20241222
20241228-19-19231,08:55:00,08:55:00,00008,Yonge St. @ Sheppard Ave.,43.7615967,-79.4111938,12240125-19,19,Mississauga / North York,20241228
20241226-47-47391,14:27:00,14:27:00,01007,Main St. W. @ Caroline St. S.,43.2570419,-79.8766251,12240125-47,47,Hamilton / Hwy 407 Terminal,20241226
20241213-32-32351,14:25:00,14:25:00,00013,Finch Bus Terminal,43.7821732,-79.4150925,12240125-32,32,Brampton Trinity Common / North York,20241213
20241205-17-17241,09:07:00,09:07:00,00178,King St. W. @ Dundurn St. N.,43.2622643,-79.8875809,08241224-17,17,Waterloo / Hamilton,20241205
20241129-19-19920,24:51:00,24:51:00,01648,Yonge St. @ Glendora Ave.,43.7586899,-79.4100418,08241224-19,19,Mississauga / North York,20241129
20241227-21-21482,14:54:00,14:54:00,01384,Thomas St. @ Erin Mills Pkwy.,43.5701637,-79.722023,12240125-21,21,Milton,20241227
20241225-LW-1738,22:41:00,22:41:00,BU,Burlington GO,43.341265,-79.809141,12240125-LW,LW,Lakeshore West,20241225
20241211-92-92171,08:50:00,08:50:00,00343,Kingston Rd. @ Church St.,43.8541832,-79.0567474,12240125-92,92,Oshawa / Yorkdale,20241211
20241230-92-92681,20:17:00,20:17:00,02748,Centre St. S. @ Athol St. W.,43.89617,-78.865335,12240125-92,92,Oshawa / Yorkdale,20241230
20241210-17-17350,14:10:00,14:10:00,01008,Main St. W. @ Dundurn St. S.,43.2598228,-79.8895493,12240125-17,17,Waterloo / Hamilton,20241210
20241213-92-92731,20:23:00,20:23:00,00623,Kingston Rd. @ Rougemount Dr.,43.80911,-79.12996,12240125-92,92,Oshawa / Yorkdale,20241213
20241225-52-52810,18:53:00,18:53:00,02021,Yonge St. @ Garden Ave.,43.8384552,-79.4297791,12240125-52,52,Oshawa / Hwy 407 Terminal,20241225
20241206-66-66610,14:40:00,14:40:00,02732,Davis Dr. W. @ Eagle St. W.,44.053908,-79.485428,08241224-66,66,East Gwillimbury / Hwy 407 Terminal,20241206
20241213-33-33601,18:19:00,18:19:00,00930,Queen St. @ Tanners Dr.,43.6406593,-80.0248184,12240125-33,33,Guelph / North York,20241213
20241231-41-41510,16:18:00,16:18:00,00132,Square One,43.5945549,-79.6475983,12240125-41,41,Hamilton / Pickering,20241231
20241212-96-96030,05:02:00,05:02:00,02572,Victoria St. @ Thickson Rd. (Thickson Ridge Power Centre),43.86726,-78.9002914,12240125-96,96,Oshawa / Finch Express,20241212
20250103-MI-2724,08:57:00,08:57:00,KP,Kipling GO,43.636955,-79.536287,12240125-MI,MI,Milton,20250103
20241217-27-27600,16:25:00,16:25:00,00808,Derry Rd. @ James Snow Pkwy.,43.5304413,-79.8352661,12240125-27,27,Milton / North York,20241217
20241207-70-70291,10:19:00,10:19:00,00958,10953 Hwy. 48 @ Elgin Mills Rd. E.,43.9325027,-79.273407,12240125-70,70,Uxbridge / Mount Joy,20241207
20241222-33-33200,09:07:00,09:07:00,00837,Guelph St. @ Mill St.,43.6512375,-79.9233627,12240125-33,33,Guelph / North York,20241222
20241201-52-52861,21:40:00,21:40:00,02542,Simcoe St. N. @ Parkwood Crt.,43.905533,-78.867271,08241224-52,52,Oshawa / Hwy 407 Terminal,20241201
20241203-21-21244,09:11:00,09:11:00,00896,Thompson Rd. S. @ McCuaig Dr.,43.5222435,-79.8590088,08241224-21,21,Milton,20241203
20241222-92-92300,11:45:00,11:45:00,00019,Yorkdale Bus Terminal,43.7249374,-79.4488754,12240125-92,92,Oshawa / Yorkdale,20241222
20241126-40-40231,10:22:00,10:22:00,01012,Main St. W. @ Ray St. S.,43.257885,-79.8809128,08241224-40,40,Hamilton / Richmond Hill,20241126
20250102-21-21835,23:20:00,23:20:00,01200,Derry Rd. W. @ Rosehurst Dr.,43.576725,-79.7844009,12240125-21,21,Milton,20250102
20241213-17-17071,06:03:00,06:03:00,01001,King St. W. @ Caroline St. N.,43.258461,-79.8752441,12240125-17,17,Waterloo / Hamilton,20241213
20241204-27-27101,07:32:00,07:32:00,01135,Aquitaine Ave. @ Glen Erin Dr.,43.5866318,-79.7586594,08241224-27,27,Milton / North York,20241204
20241221-92-92300,10:40:00,10:40:00,02628,Kingston Rd. @ Brock Rd.,43.8478546,-79.0743408,12240125-92,92,Oshawa / Yorkdale,20241221
20241206-LW-1028,18:15:00,18:15:00,UN,Union Station,43.645195,-79.3806,08241224-LW,LW,Lakeshore West,20241206
20250103-21-21484,15:19:00,15:19:00,02736,Derry Rd. @ Sauve St.,43.523968,-79.842312,12240125-21,21,Milton,20250103
20241220-41-41281,10:13:00,10:13:00,00972,Kingston Rd. @ Walnut Ln.,43.8309517,-79.0968323,12240125-41,41,Hamilton / Pickering,20241220
20241206-96-96361,13:10:00,13:10:00,00159,Durham College Oshawa GO,43.870909,-78.88585,08241224-96,96,Oshawa / Finch Express,20241206
20241217-47-47516,16:50:00,16:50:00,08041,Bramalea GO Bus,43.702269,-79.69011,12240125-47,47,Hamilton / Hwy 407 Terminal,20241217
20241226-19-19200,08:15:00,08:15:00,00132,Square One,43.5945549,-79.6475983,12240125-19,19,Mississauga / North York,20241226
20241129-27-27141,07:27:00,07:27:00,02821,Yonge St. @ Poyntz Ave.,43.760053363685,-79.4107512589806,08241224-27,27,Milton / North York,20241129
20241215-30-30240,09:36:00,09:36:00,02530,Weber St. W. @ Queen St. N.,43.4519386,-80.4876175,12240125-30,30,Kitchener / Bramalea,20241215
20241212-56-56131,07:21:00,07:21:00,02785,Trafalgar Rd. @ Glenashton Dr.,43.480786,-79.709716,12240125-56,56,Oshawa / Oakville,20241212
20241227-37-37671,18:41:00,18:41:00,01321,Main St. N. @ Vodden St. E.,43.6925087,-79.7685547,12240125-37,37,Orangeville / Brampton,20241227
20241229-88-88091,06:51:00,06:51:00,00521,King St. E. @ Galbraith Cr.,43.9117889,-78.6741791,12240125-88,88,Peterborough / Oshawa,20241229
20241229-47-47451,15:57:00,15:57:00,01012,Main St. W. @ Ray St. S.,43.257885,-79.8809128,12240125-47,47,Hamilton / Hwy 407 Terminal,20241229
20241204-27-27671,19:38:00,19:38:00,01327,Millcreek Dr. @ Millrace Crt.,43.5925064,-79.7460556,08241224-27,27,Milton / North York,20241204
20241128-LW-1716,12:29:00,12:29:00,MI,Mimico GO,43.616411,-79.497762,08241224-LW,LW,Lakeshore West,20241128
20241216-33-33322,11:23:00,11:23:00,00354,Hurontario St. @ Hwy. 407 Park & Ride,43.6521416,-79.7108765,12240125-33,33,Guelph / North York,20241216
20241210-92-92830,22:43:00,22:43:00,00332,Bond St. W. @ Stevenson Rd. N.,43.8938599,-78.8843384,12240125-92,92,Oshawa / Yorkdale,20241210
20241221-12-12360,10:20:00,10:20:00,02405,Stanley Ave. @ Hwy. 420 Park & Ride,43.097245,-79.08507,12240125-12,12,Niagara Falls / Toronto,20241221
20241219-38-38631,16:26:00,16:26:00,01393,Albion Rd. @ Steeles Ave. W.,43.7503242,-79.6393509,12240125-38,38,Bolton / Malton,20241219
20241127-68-68760,17:11:00,17:11:00,01516,Hwy. 11 @ Meadowland St.,44.2579079,-79.6026535,08241224-68,68,Barrie / Newmarket,20241127
20241214-31-31921,25:45:00,25:45:00,00222,Shopper's World,43.6678429,-79.7354813,12240125-31,31,Guelph / Toronto,20241214
20241210-31-31630,16:10:00,16:10:00,00801,Main St. S. @ Frederick St.,43.6113472,-80.1336594,12240125-31,31,Guelph / Toronto,20241210
20241217-GT-3877,19:00:00,19:00:00,KI,Kitchener GO,43.455686,-80.49313,12240125-GT,KI,Kitchener,20241217
20241202-41-41250,11:08:00,11:08:00,00350,Richmond Hill Centre,43.8401451,-79.4252853,08241224-41,41,Hamilton / Pickering,20241202
20241228-29-29880,23:05:00,23:05:00,00337,Brock Rd. @ McLean Rd. (Aberfoyle) Park & Ride,43.4609909,-80.133667,12240125-29,29,Guelph / Mississauga,20241228
20241218-41-41262,10:57:00,10:57:00,08041,Bramalea GO Bus,43.702269,-79.69011,12240125-41,41,Hamilton / Pickering,20241218
20241129-25-25760,20:58:00,20:58:00,02150,Cambridge Smart Centre,43.4117165,-80.3236008,08241224-25,25,Waterloo / Mississauga,20241129
20241206-25-25311,10:45:00,10:45:00,00133,Square One,43.5946693,-79.6474915,08241224-25,25,Waterloo / Mississauga,20241206
20241203-17-17541,16:05:00,16:05:00,01001,King St. W. @ Caroline St. N.,43.258461,-79.8752441,08241224-17,17,Waterloo / Hamilton,20241203
20241202-41-41501,19:00:00,19:00:00,01013,Main St. W. @ Poulette St.,43.2591286,-79.8864059,08241224-41,41,Hamilton / Pickering,20241202
20250102-65-65520,15:50:00,15:50:00,01801,Wellington St. E. @ Stronach Blvd.,44.0072441,-79.4335251,12240125-65,65,Newmarket / Toronto,20250102
20241217-56-56541,17:45:00,17:45:00,02673,Hwy 407 Bus Terminal,43.7830465622674,-79.5232260682288,12240125-56,56,Oshawa / Oakville,20241217
20241129-47-47626,17:46:00,17:46:00,00310,McMaster University,43.2617264,-79.9225693,08241224-47,47,Hamilton / Hwy 407 Terminal,20241129
20241212-41-41290,12:55:00,12:55:00,02650,Military Trail. @ Pan Am Dr.,43.7878560204119,-79.1908919809448,12240125-41,41,Hamilton / Pickering,20241212
20241129-LW-1732,19:48:00,19:48:00,AP,Appleby GO,43.379429,-79.760991,08241224-LW,LW,Lakeshore West,20241129
20241210-17-17481,16:19:00,16:19:00,01711,Gordon St. @ Kortright Rd. E.,43.5224457,-80.2131119,12240125-17,17,Waterloo / Hamilton,20241210
20241215-71-71630,18:00:00,18:00:00,00128,Unionville GO Bus,43.851935,-79.313774,12240125-71,71,Stouffville,20241215
20250102-LE-9320,15:32:00,15:32:00,PIN,Pickering GO,43.831576,-79.084594,12240125-LE,LE,Lakeshore East,20250102
20241231-48-48431,15:22:00,15:22:00,02677,Gordon St. @ Clair Rd. E.,43.5002316951943,-80.1886650066085,12240125-48,48,Guelph / Hwy 407 Terminal,20241231
20241201-33-33551,16:23:00,16:23:00,00990,Hurontario St. @ County Court Blvd.,43.6589584,-79.7234879,08241224-33,33,Guelph / North York,20241201
20241226-36-36720,21:00:00,21:00:00,00011,York Mills Bus Terminal,43.745079,-79.4064636,12240125-36,36,Brampton / North York Express,20241226
20241204-31-31201,09:32:00,09:32:00,00848,Hwy. 7 @ Bethel Rd.,43.6550446,-79.940506,08241224-31,31,Guelph / Toronto,20241204
20241212-41-41840,23:22:00,23:22:00,02838,Sheppard Ave. E. @ Herons Hill Way,43.7754648931527,-79.3354883868647,12240125-41,41,Hamilton / Pickering,20241212
20241225-47-47310,09:00:00,09:00:00,00141,Hamilton GO Centre Bus,43.252945,-79.869586,12240125-47,47,Hamilton / Hwy 407 Terminal,20241225
20241218-71-71901,25:51:00,25:51:00,02575,Markham Rd. @ Castlemore Ave.,43.9040985,-79.2667618,12240125-71,71,Stouffville,20241218
20241228-25-25690,19:10:00,19:10:00,02184,Sportsworld Dr. @ Hwy. 8 Park & Ride,43.4099274,-80.3925095,12240125-25,25,Waterloo / Mississauga,20241228
20241213-31-31880,24:09:00,24:09:00,01308,Main St. S. @ Elgin Dr.,43.6736908,-79.743866,12240125-31,31,Guelph / Toronto,20241213
20241220-33-33501,17:03:00,17:03:00,02719,York St. @ 800 York St.,43.5584831140902,-80.2149901373342,12240125-33,33,Guelph / North York,20241220
20241212-40-40630,17:27:00,17:27:00,01005,King St. W. @ Strathcona Ave. N.,43.2614555,-79.8850708,12240125-40,40,Hamilton / Richmond Hill,20241212
20241221-25-25340,12:46:00,12:46:00,02151,Regional Rd. 25 @ Hwy. 401 Park & Ride,43.5274849,-79.9038162,12240125-25,25,Waterloo / Mississauga,20241221
20241209-LW-1015,11:59:00,11:59:00,OA,Oakville GO,43.455594,-79.682242,12240125-LW,LW,Lakeshore West,20241209
20241211-12-12393,13:53:00,13:53:00,02404,Stanley Ave. @ Hwy. 420 Park & Ride,43.097075,-79.084885,12240125-12,12,Niagara Falls / Toronto,20241211
20241231-21-21000,04:38:00,04:38:00,02739,Rathburn Rd. W. @ Perivale Rd.,43.575505,-79.664227,12240125-21,21,Milton,20241231
20241210-17-17270,11:09:00,11:09:00,01718,Brock Rd. S. @ Maple Leaf Ln.,43.4715347,-80.1500168,12240125-17,17,Waterloo / Hamilton,20241210
20241219-27-27821,22:30:00,22:30:00,00019,Yorkdale Bus Terminal,43.7249374,-79.4488754,12240125-27,27,Milton / North York,20241219
20241128-37-37200,06:25:00,06:25:00,01255,Hansen Blvd. @ Michael Dr.,43.9295616,-80.1105499,08241224-37,37,Orangeville / Brampton,20241128
20241210-LE-9124,17:15:00,17:15:00,WH,Whitby GO,43.86484,-78.93818,12240125-LE,LE,Lakeshore East,20241210
20241224-RH-5323,16:51:00,16:51:00,BM,Bloomington GO,43.975949,-79.397258,12240125-RH,RH,Richmond Hill,20241224
20241217-41-41382,14:25:00,14:25:00,02771,Yonge St. @ Hwy. 407,43.8384664250903,-79.4293096916894,12240125-41,41,Hamilton / Pickering,20241217
20241230-96-96420,14:13:00,14:13:00,02816,Scarborough Centre Bus Terminal,43.77486,-79.26088,12240125-96,96,Oshawa / Finch Express,20241230
20241210-16-16101,07:30:00,07:30:00,00141,Hamilton GO Centre Bus,43.252945,-79.869586,12240125-16,16,Hamilton / Toronto Express,20241210
20241227-67-67170,06:30:00,06:30:00,02522,Woodbine Ave. @ Hwy. 404 Park & Ride,44.1918488,-79.4372101,12240125-67,67,Keswick / North York,20241227
20241222-36-36300,11:15:00,11:15:00,01160,Bramalea Rd. @ Avondale Blvd.,43.7094116,-79.6974106,12240125-36,36,Brampton / North York Express,20241222
20241230-27-27701,19:19:00,19:19:00,00079,Yonge St. @ North York Blvd. (Mel Lastman Square),43.7681007,-79.4128571,12240125-27,27,Milton / North York,20241230
20241218-21-21901,25:50:00,25:50:00,00806,Derry Rd. @ Fourth Line,43.5261955,-79.8401794,12240125-21,21,Milton,20241218
20241206-41-41020,07:44:00,07:44:00,02540,Morningside Ave. @ Tams Rd.,43.792179,-79.19574,08241224-41,41,Hamilton / Pickering,20241206
20241210-48-48691,19:24:00,19:24:00,01246,Mississauga Rd. @ Argentia Rd.,43.6003456,-79.7399902,12240125-48,48,Guelph / Hwy 407 Terminal,20241210
20241227-33-33721,20:08:00,20:08:00,00211,Guelph St. @ Alcott Dr.,43.6500854,-79.8976746,12240125-33,33,Guelph / North York,20241227
20241209-41-41370,14:26:00,14:26:00,02756,Consumers Rd. @ William Sylvester Dr.,43.770398,-79.33023,12240125-41,41,Hamilton / Pickering,20241209
20241202-17-17590,16:53:00,16:53:00,02153,Wilfrid Laurier University,43.4752655,-80.5272827,08241224-17,17,Waterloo / Hamilton,20241202
20241223-56-56441,16:27:00,16:27:00,08043,Cornell Bus Terminal,43.879761,-79.232535,12240125-56,56,Oshawa / Oakville,20241223
20241210-27-27621,18:45:00,18:45:00,01327,Millcreek Dr. @ Millrace Crt.,43.5925064,-79.7460556,12240125-27,27,Milton / North York,20241210
20250102-41-41731,20:17:00,20:17:00,00358,Centennial College,43.7854233,-79.2290802,12240125-41,41,Hamilton / Pickering,20250102
20241221-15-15440,11:05:00,11:05:00,00310,McMaster University,43.2617264,-79.9225693,12240125-15,15,Brantford / Aldershot,20241221
20241216-25-25061,06:52:00,06:52:00,02605,Hespeler Rd. @ Pinebush Rd.,43.4089508,-80.3281174,12240125-25,25,Waterloo / Mississauga,20241216
20241214-40-40501,16:00:00,16:00:00,00133,Square One,43.5946693,-79.6474915,12240125-40,40,Hamilton / Richmond Hill,20241214
20241130-40-40231,10:21:00,10:21:00,01011,Main St. W. @ Pearl St. S.,43.2583809,-79.8828964,08241224-40,40,Hamilton / Richmond Hill,20241130
20241127-32-32431,16:00:00,16:00:00,00013,Finch Bus Terminal,43.7821732,-79.4150925,08241224-32,32,Brampton Trinity Common / North York,20241127
20241227-41-41650,17:45:00,17:45:00,00178,King St. W. @ Dundurn St. N.,43.2622643,-79.8875809,12240125-41,41,Hamilton / Pickering,20241227
20241127-32-32070,06:25:00,06:25:00,02058,Yonge St. @ Meadowview Ave.,43.8020096,-79.4213104,08241224-32,32,Brampton Trinity Common / North York,20241127
20241212-21-21181,08:27:00,08:27:00,02655,Hurontario St. @ Fairview Rd.,43.5875907610701,-79.6265046670912,12240125-21,21,Milton,20241212
20241201-88-88901,22:35:00,22:35:00,02505,Hwy. 35 @ Hwy. 115 Park & Ride,44.064003,-78.6258087,08241224-88,88,Peterborough / Oshawa,20241201
20241215-19-19250,09:40:00,09:40:00,00022,Keele St. @ Hwy. 401,43.7216759,-79.4808273,12240125-19,19,Mississauga / North York,20241215
20241211-94-94451,15:20:00,15:20:00,00019,Yorkdale Bus Terminal,43.7249374,-79.4488754,12240125-94,94,Pickering / Square One,20241211
20241229-33-33821,23:30:00,23:30:00,00887,Queen St. @ Acton Blvd.,43.63509,-80.03091,12240125-33,33,Guelph / North York,20241229
20241227-56-56351,14:27:00,14:27:00,02781,Simcoe St. N. @ Britannia Ave.,43.955632,-78.899736,12240125-56,56,Oshawa / Oakville,20241227
20241201-19-19121,06:52:00,06:52:00,01644,Yonge St. @ Churchill Ave.,43.7741737,-79.4143219,08241224-19,19,Mississauga / North York,20241201
20241210-71-71710,18:13:00,18:13:00,00959,10953 Hwy. 48 @ Elgin Mills Rd. E.,43.9326401,-79.2737274,12240125-71,71,Stouffville,20241210
20250101-36-36331,11:50:00,11:50:00,01184,Clark Blvd. @ Kings Cross Rd.,43.7190437,-79.7124939,12240125-36,36,Brampton / North York Express,20250101
20241209-68-68761,23:17:00,23:17:00,02828,Barrie Transit Terminal,44.387438,-79.690317,12240125-68,68,Barrie / Newmarket,20241209
20241223-56-56000,04:07:00,04:07:00,02684,Simcoe St. @ Britannia Ave.,43.9558385161942,-78.8994952290358,12240125-56,56,Oshawa / Oakville,20241223
20241224-41-41210,07:56:00,07:56:00,01002,King St. E. @ Hughson St. N.,43.2562103,-79.8672409,12240125-41,41,Hamilton / Pickering,20241224
20241217-29-29880,22:30:00,22:30:00,01708,Gordon St. @ Stone Rd.,43.5271797,-80.2259216,12240125-29,29,Guelph / Mississauga,20241217
20241128-56-56450,17:30:00,17:30:00,02766,Trafalgar Rd. @ McCraney St. E.,43.466272,-79.690048,08241224-56,56,Oshawa / Oakville,20241128
20241203-71-71171,08:46:00,08:46:00,00738,Hwy. 48 @ 19th Ave.,43.945339,-79.277901,08241224-71,71,Stouffville,20241203
20241214-31-31040,06:34:00,06:34:00,01308,Main St. S. @ Elgin Dr.,43.6736908,-79.743866,12240125-31,31,Guelph / Toronto,20241214
20250103-BR-6313,10:54:00,10:54:00,UN,Union Station,43.645195,-79.3806,12240125-BR,BR,Barrie,20250103
20241225-40-40711,19:52:00,19:52:00,02658,Dixie Transitway Station,43.6300478663032,-79.6146878930147,12240125-40,40,Hamilton / Richmond Hill,20241225
20241222-12-12391,13:32:00,13:32:00,02406,Casablanca Blvd. @ QEW Park & Ride,43.2047997,-79.5964279,12240125-12,12,Niagara Falls / Toronto,20241222
20241218-41-41633,17:43:00,17:43:00,00972,Kingston Rd. @ Walnut Ln.,43.8309517,-79.0968323,12240125-41,41,Hamilton / Pickering,20241218
20250103-27-27160,07:10:00,07:10:00,00191,Aquitaine Ave. @ Meadowvale Town Centre Circle,43.5847511,-79.7606812,12240125-27,27,Milton / North York,20250103
20241202-41-41161,10:44:00,10:44:00,01009,Main St. W. @ Macklin St. S.,43.2599144,-79.8979721,08241224-41,41,Hamilton / Pickering,20241202
20241218-70-70110,06:44:00,06:44:00,00714,Toronto St. @ Brock St.,44.1092377,-79.1226883,12240125-70,70,Uxbridge / Mount Joy,20241218
20241224-19-19911,24:05:00,24:05:00,00019,Yorkdale Bus Terminal,43.7249374,-79.4488754,12240125-19,19,Mississauga / North York,20241224
20241225-96-96100,07:23:00,07:23:00,01650,Yonge St. @ Northtown Way,43.7753067,-79.4142609,12240125-96,96,Oshawa / Finch Express,20241225
20241204-54-54141,07:35:00,07:35:00,02141,YMCA Blvd. @ Kennedy Rd.,43.8532639,-79.3093185,08241224-54,54,Markham / Hwy 407 Terminal,20241204
20241219-56-56571,16:45:00,16:45:00,00137,Oakville GO Bus,43.455966,-79.681676,12240125-56,56,Oshawa / Oakville,20241219
20241230-16-16740,19:05:00,19:05:00,01006,King St. W. @ Summers Ln. (Hamilton Place),43.2576485,-79.8717346,12240125-16,16,Hamilton / Toronto Express,20241230
20241225-16-16761,21:23:00,21:23:00,00732,Main St. W. @ Longwood Rd. S.,43.2590866,-79.901741,12240125-16,16,Hamilton / Toronto Express,20241225
20250103-21-21311,12:11:00,12:11:00,02847,Thomas St. @ Highbank Rd.,43.571390698523,-79.7207524673365,12240125-21,21,Milton,20250103
20241129-47-47740,19:39:00,19:39:00,00178,King St. W. @ Dundurn St. N.,43.2622643,-79.8875809,08241224-47,47,Hamilton / Hwy 407 Terminal,20241129
20241228-27-27341,12:17:00,12:17:00,02587,Dupont Meadow Pl. @ Mississauga Rd.,43.6081848,-79.7510834,12240125-27,27,Milton / North York,20241228
20241219-40-40590,17:20:00,17:20:00,02163,Trafalgar Rd. @ Hwy. 407 Park & Ride,43.506545,-79.745813,12240125-40,40,Hamilton / Richmond Hill,20241219
20241218-92-92681,20:05:00,20:05:00,00327,Dundas St. @ Garden St.,43.8822479,-78.9310532,12240125-92,92,Oshawa / Yorkdale,20241218
20250102-21-21765,21:43:00,21:43:00,00895,Thompson Rd. S. @ McCuaig Dr.,43.5221252,-79.8587494,12240125-21,21,Milton,20250102
20241127-19-19631,18:12:00,18:12:00,02660,Renforth Transitway Station,43.6630754344014,-79.591281189024,08241224-19,19,Mississauga / North York,20241127
20241229-30-30232,09:30:00,09:30:00,02186,Kitchener GO Bus,43.455573,-80.492543,12240125-30,30,Kitchener / Bramalea,20241229
20241220-41-41411,16:55:00,16:55:00,00141,Hamilton GO Centre Bus,43.252945,-79.869586,12240125-41,41,Hamilton / Pickering,20241220
20241216-21-21830,22:57:00,22:57:00,00148,Streetsville GO Bus,43.575378,-79.709271,12240125-21,21,Milton,20241216
20241216-31-31923,25:16:00,25:16:00,00222,Shopper's World,43.6678429,-79.7354813,12240125-31,31,Guelph / Toronto,20241216
20241223-19-19460,14:57:00,14:57:00,02661,Renforth Transitway Station,43.662995090205,-79.5911181123626,12240125-19,19,Mississauga / North York,20241223
20241220-31-31570,14:45:00,14:45:00,00201,University of Guelph,43.5293732,-80.2252502,12240125-31,31,Guelph / Toronto,20241220
20241231-70-70680,18:51:00,18:51:00,02758,Hwy. 47 @ Paisley Ln.,44.0177983588276,-79.2319480136823,12240125-70,70,Uxbridge / Mount Joy,20241231
20241230-71-71901,26:05:00,26:05:00,02117,Tenth Line @ Aintree Dr.,43.9778366,-79.2319031,12240125-71,71,Stouffville,20241230
20241220-71-71910,25:14:00,25:14:00,02126,Main St. @ Stouffer St.,43.9733505,-79.2380981,12240125-71,71,Stouffville,20241220
20241129-88-88811,23:06:00,23:06:00,00948,Durham Rd. 57 @ Waverley Rd.,43.9002495,-78.6930161,08241224-88,88,Peterborough / Oshawa,20241129
20241218-41-41230,11:32:00,11:32:00,00144,University of Toronto Scarborough,43.7843628,-79.1851273,12240125-41,41,Hamilton / Pickering,20241218
20241209-25-25800,21:50:00,21:50:00,02184,Sportsworld Dr. @ Hwy. 8 Park & Ride,43.4099274,-80.3925095,12240125-25,25,Waterloo / Mississauga,20241209
20241228-92-92220,08:21:00,08:21:00,00166,Bond St. W. @ Centre St. N.,43.898056,-78.8659744,12240125-92,92,Oshawa / Yorkdale,20241228
20241219-71-71961,27:33:00,27:33:00,00118,Main St. @ Edward St. (Stouffville GO),43.97041,-79.25075,12240125-71,71,Stouffville,20241219
20241205-21-21830,22:18:00,22:18:00,00931,Derry Rd. @ Armstrong Blvd.,43.5208778,-79.8457336,08241224-21,21,Milton,20241205
20241221-40-40201,09:37:00,09:37:00,01012,Main St. W. @ Ray St. S.,43.257885,-79.8809128,12240125-40,40,Hamilton / Richmond Hill,20241221
20241230-41-41042,06:38:00,06:38:00,00132,Square One,43.5945549,-79.6475983,12240125-41,41,Hamilton / Pickering,20241230
20241211-ST-7428,18:12:00,18:12:00,UN,Union Station,43.645195,-79.3806,12240125-ST,ST,Stouffville,20241211
20241203-67-67110,06:32:00,06:32:00,01655,Yonge St. @ Norton Ave.,43.7721901,-79.4134216,08241224-67,67,Keswick / North York,20241203
20241216-33-33691,19:08:00,19:08:00,00217,Bovaird Dr. W. @ Chinguacousy Rd.,43.6859589,-79.8089981,12240125-33,33,Guelph / North York,20241216
20241218-31-31923,26:46:00,26:46:00,00201,University of Guelph,43.5293732,-80.2252502,12240125-31,31,Guelph / Toronto,20241218
20241129-LE-9124,16:43:00,16:43:00,EG,Eglinton GO,43.739621,-79.23231,08241224-LE,LE,Lakeshore East,20241129
20241226-52-52790,16:37:00,16:37:00,02543,Simcoe St. N. @ Parkwood Crt.,43.905807,-78.867111,12240125-52,52,Oshawa / Hwy 407 Terminal,20241226
20241218-66-66381,13:50:00,13:50:00,00021,Hwy. 9 @ Hwy. 400 Park & Ride,44.0275345,-79.5959473,12240125-66,66,East Gwillimbury / Hwy 407 Terminal,20241218
20241128-41-41780,22:53:00,22:53:00,02651,Military Trail. @ Pan Am Dr.,43.7877954094493,-79.1904190458541,08241224-41,41,Hamilton / Pickering,20241128
20241212-68-68130,04:44:00,04:44:00,02595,Yonge St. @ Line 11,44.1623192,-79.5767288,12240125-68,68,Barrie / Newmarket,20241212
20241226-LW-1323,16:15:00,16:15:00,MI,Mimico GO,43.616411,-79.497762,12240125-LW,LW,Lakeshore West,20241226
20241216-92-92771,21:41:00,21:41:00,00323,Kingston Rd. @ Harwood Ave.,43.8611984,-79.0252075,12240125-92,92,Oshawa / Yorkdale,20241216
20241227-48-48651,18:30:00,18:30:00,01325,Millcreek Dr. @ Erin Mills Pkwy.,43.5904884,-79.7418976,12240125-48,48,Guelph / Hwy 407 Terminal,20241227
20241205-47-47191,11:03:00,11:03:00,01010,Main St. W. @ Paisley Ave. S.,43.2584991,-79.9061661,08241224-47,47,Hamilton / Hwy 407 Terminal,20241205
20241218-68-68291,13:18:00,13:18:00,02835,Allandale Waterfront GO Bus,44.373273,-79.691063,12240125-68,68,Barrie / Newmarket,20241218
20241219-33-33262,09:14:00,09:14:00,00216,Bovaird Dr. W. @ Chinguacousy Rd.,43.6868248,-79.8075638,12240125-33,33,Guelph / North York,20241219
20241220-18-18051,06:47:00,06:47:00,00871,Plains Rd. E. @ Cedarwood Place,43.3207474,-79.8343353,12240125-18,18,Lakeshore West,20241220
20241211-GT-3812,09:45:00,09:45:00,BR,Brampton Innovation District GO,43.6869087,-79.7628632,12240125-GT,KI,Kitchener,20241211
20241126-41-41161,07:43:00,07:43:00,02651,Military Trail. @ Pan Am Dr.,43.7877954094493,-79.1904190458541,08241224-41,41,Hamilton / Pickering,20241126
20250103-25-25090,06:23:00,06:23:00,02153,Wilfrid Laurier University,43.4752655,-80.5272827,12240125-25,25,Waterloo / Mississauga,20250103
20241219-21-21271,11:12:00,11:12:00,01455,Erin Mills Pkwy. @ Vista Blvd.,43.5736008,-79.7274475,12240125-21,21,Milton,20241219
20241224-27-27671,19:35:00,19:35:00,00196,Erin Mills Pkwy. @ Turner Valley Rd.,43.5971031,-79.7390289,12240125-27,27,Milton / North York,20241224
20241222-21-21823,24:19:00,24:19:00,02597,6715 Millcreek Dr. @ Aquitaine Ave. (Millcreek Business Centre),43.5951004,-79.7512894,12240125-21,21,Milton,20241222
20241218-41-41663,18:25:00,18:25:00,02576,Kingston Rd. @ Fairport Rd.,43.8238487,-79.1063309,12240125-41,41,Hamilton / Pickering,20241218
20241208-BR-6311,09:54:00,09:54:00,UN,Union Station,43.645195,-79.3806,12240125-BR,BR,Barrie,20241208
20241229-27-27631,17:33:00,17:33:00,01654,Yonge St. @ Ellerslie Ave.,43.7724152,-79.4139328,12240125-27,27,Milton / North York,20241229
20241208-92-92351,12:34:00,12:34:00,00623,Kingston Rd. @ Rougemount Dr.,43.80911,-79.12996,12240125-92,92,Oshawa / Yorkdale,20241208
20241212-19-19771,20:54:00,20:54:00,00079,Yonge St. @ North York Blvd. (Mel Lastman Square),43.7681007,-79.4128571,12240125-19,19,Mississauga / North York,20241212
20241217-27-27521,16:00:00,16:00:00,00300,Yonge St. @ North York Blvd.,43.7668343,-79.412468,12240125-27,27,Milton / North York,20241217
20241205-33-33550,14:48:00,14:48:00,02803,Main St. N. @ George St.,43.651519,-79.928908,08241224-33,33,Guelph / North York,20241205
20241217-LW-1732,19:48:00,19:48:00,AP,Appleby GO,43.379429,-79.760991,12240125-LW,LW,Lakeshore West,20241217
20241231-21-21010,05:08:00,05:08:00,01191,Creditview Rd. @ Eglinton Ave.,43.577282,-79.6845093,12240125-21,21,Milton,20241231
20241228-47-47730,18:10:00,18:10:00,02185,Main St. W. @ Haddon Ave. S.,43.258091,-79.91185,12240125-47,47,Hamilton / Hwy 407 Terminal,20241228
20241127-27-27130,06:13:00,06:13:00,00811,Derry Rd. @ Thompson Rd. S.,43.5183742974875,-79.8485449007419,08241224-27,27,Milton / North York,20241127
20241127-70-70931,25:48:00,25:48:00,00698,Toronto St. S. @ Poplar St.,44.1068153,-79.1233902,08241224-70,70,Uxbridge / Mount Joy,20241127
20241224-31-31923,26:01:00,26:01:00,02804,Main St. N. @ Henry St.,43.65194,-79.92927,12240125-31,31,Guelph / Toronto,20241224
20241203-33-33320,10:22:00,10:22:00,00214,Bovaird Dr. W. @ Mississauga Rd.,43.665844,-79.830719,08241224-33,33,Guelph / North York,20241203
20241215-21-21710,19:40:00,19:40:00,01198,Derry Rd. W. @ Lisgar Dr.,43.5767136,-79.7842407,12240125-21,21,Milton,20241215
20241206-21-21274,09:59:00,09:59:00,01483,Winston Churchill Blvd. @ Vanderbilt Rd.,43.5848999,-79.7667999,08241224-21,21,Milton,20241206
20241223-48-48340,10:40:00,10:40:00,00129,Meadowvale GO Bus,43.597499,-79.754517,12240125-48,48,Guelph / Hwy 407 Terminal,20241223
20241228-92-92100,06:54:00,06:54:00,00314,Kingston Rd. @ Glenanna Rd.,43.8381004,-79.087471,12240125-92,92,Oshawa / Yorkdale,20241228
20250101-27-27301,11:25:00,11:25:00,01327,Millcreek Dr. @ Millrace Crt.,43.5925064,-79.7460556,12240125-27,27,Milton / North York,20250101
20241226-96-96191,08:15:00,08:15:00,00299,Yonge St. @ Elmhurst Ave.,43.7634468,-79.4115524,12240125-96,96,Oshawa / Finch Express,20241226
20241221-19-19881,23:52:00,23:52:00,01654,Yonge St. @ Ellerslie Ave.,43.7724152,-79.4139328,12240125-19,19,Mississauga / North York,20241221
20241127-BR-6608,06:57:00,06:57:00,EA,East Gwillimbury GO,44.077996,-79.455776,08241224-BR,BR,Barrie,20241127
20241213-47-47910,24:27:00,24:27:00,08041,Bramalea GO Bus,43.702269,-79.69011,12240125-47,47,Hamilton / Hwy 407 Terminal,20241213
20241204-40-40151,07:06:00,07:06:00,02021,Yonge St. @ Garden Ave.,43.8384552,-79.4297791,08241224-40,40,Hamilton / Richmond Hill,20241204
20241206-19-19641,17:45:00,17:45:00,00013,Finch Bus Terminal,43.7821732,-79.4150925,08241224-19,19,Mississauga / North York,20241206
20250103-41-41330,13:22:00,13:22:00,02838,Sheppard Ave. E. @ Herons Hill Way,43.7754648931527,-79.3354883868647,12240125-41,41,Hamilton / Pickering,20250103
20241203-27-27160,07:07:00,07:07:00,01481,Derry Rd. W. @ Winston Churchill Blvd.,43.5877228,-79.7712631,08241224-27,27,Milton / North York,20241203
20241127-21-21311,12:03:00,12:03:00,01446,Erin Mills Pkwy. @ McFarren Blvd.,43.5677757,-79.7184906,08241224-21,21,Milton,20241127
20241130-21-21655,20:40:00,20:40:00,00129,Meadowvale GO Bus,43.597499,-79.754517,08241224-21,21,Milton,20241130
20241203-33-33791,22:12:00,22:12:00,00847,Hwy. 7 @ Banting Rd.,43.6515427,-79.9443207,08241224-33,33,Guelph / North York,20241203
20241213-40-40121,08:32:00,08:32:00,01009,Main St. W. @ Macklin St. S.,43.2599144,-79.8979721,12240125-40,40,Hamilton / Richmond Hill,20241213
20241210-71-71670,17:04:00,17:04:00,02192,Main St. @ Sandale Rd.,43.9662666,-79.2703018,12240125-71,71,Stouffville,20241210
20241202-27-27060,05:31:00,05:31:00,02598,Millcreek Dr. @ Aquitaine Ave.,43.5951157,-79.7525024,08241224-27,27,Milton / North York,20241202
20241127-32-32361,14:58:00,14:58:00,02127,Yonge St. @ Clark Ave. E.,43.8069839,-79.4221497,08241224-32,32,Brampton Trinity Common / North York,20241127
20241127-27-27521,15:55:00,15:55:00,00013,Finch Bus Terminal,43.7821732,-79.4150925,08241224-27,27,Milton / North York,20241127
20241206-88-88830,21:55:00,21:55:00,02502,Peterborough Bus Terminal,44.3045998,-78.3224182,08241224-88,88,Peterborough / Oshawa,20241206
20241230-21-21010,04:21:00,04:21:00,00891,Thompson Rd. S. @ Childs Dr.,43.5241127,-79.8615265,12240125-21,21,Milton,20241230
20241224-33-33640,18:55:00,18:55:00,00011,York Mills Bus Terminal,43.745079,-79.4064636,12240125-33,33,Guelph / North York,20241224
20241213-17-17701,20:21:00,20:21:00,01711,Gordon St. @ Kortright Rd. E.,43.5224457,-80.2131119,12240125-17,17,Waterloo / Hamilton,20241213
20241220-15-15290,07:23:00,07:23:00,02614,Colborne St E. @ Kiwanis Way,43.1404762,-80.2400513,12240125-15,15,Brantford / Aldershot,20241220
20241129-71-71620,16:24:00,16:24:00,02110,Bullock Dr. @ Laidlaw Blvd.,43.874855,-79.2794647,08241224-71,71,Stouffville,20241129
20241201-33-33821,21:30:00,21:30:00,00011,York Mills Bus Terminal,43.745079,-79.4064636,08241224-33,33,Guelph / North York,20241201
20241202-33-33010,05:07:00,05:07:00,00837,Guelph St. @ Mill St.,43.6512375,-79.9233627,08241224-33,33,Guelph / North York,20241202
20241230-47-47921,26:48:00,26:48:00,01014,Main St. W. @ Summers Ln. (Hamilton City Hall),43.2560577,-79.8728027,12240125-47,47,Hamilton / Hwy 407 Terminal,20241230
20241207-33-33291,11:34:00,11:34:00,00887,Queen St. @ Acton Blvd.,43.63509,-80.03091,12240125-33,33,Guelph / North York,20241207
20241229-47-47830,21:14:00,21:14:00,00138,Bronte Rd. @ Hwy. 407 Park & Ride,43.4457626,-79.7920151,12240125-47,47,Hamilton / Hwy 407 Terminal,20241229
20241126-LW-1704,06:30:00,06:30:00,UN,Union Station,43.645195,-79.3806,08241224-LW,LW,Lakeshore West,20241126
20241213-33-33151,07:13:00,07:13:00,00989,Hurontario St. @ County Court Blvd.,43.6621399,-79.7277679,12240125-33,33,Guelph / North York,20241213
20241128-LW-1710,09:36:00,09:36:00,EX,Exhibition GO,43.635549,-79.418927,08241224-LW,LW,Lakeshore West,20241128
20241126-94-94410,14:45:00,14:45:00,02209,Renforth Dr. @ Convair Dr.,43.6723671,-79.5936432,08241224-94,94,Pickering / Square One,20241126
20241217-41-41451,17:55:00,17:55:00,00310,McMaster University,43.2617264,-79.9225693,12240125-41,41,Hamilton / Pickering,20241217
20241208-16-16460,14:50:00,14:50:00,02300,Union Station Bus Terminal,43.644042,-79.376939,12240125-16,16,Hamilton / Toronto Express,20241208
20241216-88-88680,16:55:00,16:55:00,00734,King St. E. @ Simpson Ave.,43.9116249,-78.6742783,12240125-88,88,Peterborough / Oshawa,20241216
20241218-32-32453,15:56:00,15:56:00,01657,Yonge St. @ William Carson Cr.,43.7471085,-79.4072647,12240125-32,32,Brampton Trinity Common / North York,20241218
20241213-92-92890,25:40:00,25:40:00,01657,Yonge St. @ William Carson Cr.,43.7471085,-79.4072647,12240125-92,92,Oshawa / Yorkdale,20241213
20241206-33-33080,06:18:00,06:18:00,00223,Shopper's World,43.6675682,-79.7358246,08241224-33,33,Guelph / North York,20241206
20241127-27-27130,06:34:00,06:34:00,01136,Aquitaine Ave. @ Montevideo Rd.,43.5898781,-79.7560043,08241224-27,27,Milton / North York,20241127
20250102-LE-9224,16:47:00,16:47:00,DA,Danforth GO,43.686462,-79.300358,12240125-LE,LE,Lakeshore East,20250102
20241227-38-38631,17:06:00,17:06:00,02682,Queen St. @ Mill St.,43.8809995812407,-79.7400896488493,12240125-38,38,Bolton / Malton,20241227
